{
  "1354963": {
    "experience": 8.72,
    "visibility": 2.64,
    "trust": 7.22,
    "conversion": 2.0,
    "prestige": 1.5,
    "overall": 5.4,
    "fhrsid": 1354963,
    "name": "The Tea Shed",
    "postcode": "CV47 8LT",
    "category": "Cafe / Coffee Shop",
    "category_source": "google_types",
    "lat": 52.244514465332,
    "lon": -1.31836903095245,
    "google_rating": 4.8,
    "google_reviews": 13,
    "fsa_rating": 5,
    "price_level": null
  },
  "1584577": {
    "experience": 8.38,
    "visibility": 5.48,
    "trust": 7.66,
    "conversion": 2.5,
    "prestige": 1.5,
    "overall": 6.05,
    "fhrsid": 1584577,
    "name": "Shakespeare's",
    "postcode": "B94 5JU",
    "category": "Other",
    "category_source": "unclassified",
    "lat": 52.3662872314453,
    "lon": -1.86548697948456,
    "google_rating": 4.5,
    "google_reviews": 1375,
    "fsa_rating": 4,
    "price_level": null
  },
  "1695937": {
    "experience": 8.96,
    "visibility": 6.68,
    "trust": 7.79,
    "conversion": 4.5,
    "prestige": 1.5,
    "overall": 6.8,
    "fhrsid": 1695937,
    "name": "Impasto Micro-Pizzeria",
    "postcode": "CV37 6QY",
    "category": "Italian Restaurant",
    "category_source": "google_types",
    "lat": 52.1935788,
    "lon": -1.7058083,
    "google_rating": 5.0,
    "google_reviews": 121,
    "fsa_rating": 5,
    "price_level": null
  },
  "503081": {
    "experience": 8.49,
    "visibility": 7.86,
    "trust": 8.98,
    "conversion": 7.0,
    "prestige": 1.5,
    "overall": 7.56,
    "fhrsid": 503081,
    "name": "Sans Oriental Restaurant",
    "postcode": "B95 5AT",
    "category": "Chinese Restaurant",
    "category_source": "google_types",
    "lat": 52.294209,
    "lon": -1.778947,
    "google_rating": 4.6,
    "google_reviews": 289,
    "fsa_rating": 5,
    "price_level": 2
  },
  "1622070": {
    "experience": 9.07,
    "visibility": 8.05,
    "trust": 8.45,
    "conversion": 5.5,
    "prestige": 0.0,
    "overall": 7.27,
    "fhrsid": 1622070,
    "name": "Carluccio's",
    "postcode": "CV37 6BA",
    "category": "Italian Restaurant",
    "category_source": "google_types",
    "lat": 52.192307,
    "lon": -1.7041342,
    "google_rating": 4.2,
    "google_reviews": 516,
    "fsa_rating": 5,
    "price_level": 2
  },
  "503554": {
    "experience": 9.42,
    "visibility": 7.89,
    "trust": 7.11,
    "conversion": 5.5,
    "prestige": 1.5,
    "overall": 7.16,
    "fhrsid": 503554,
    "name": "The Bridge",
    "postcode": "B50 4BG",
    "category": "Restaurant (General)",
    "category_source": "google_types",
    "lat": 52.164187,
    "lon": -1.858611,
    "google_rating": 4.5,
    "google_reviews": 315,
    "fsa_rating": 5,
    "price_level": 2
  },
  "503316": {
    "experience": 9.65,
    "visibility": 8.38,
    "trust": 8.7,
    "conversion": 5.5,
    "prestige": 1.5,
    "overall": 7.72,
    "fhrsid": 503316,
    "name": "Lambs",
    "postcode": "CV37 6EF",
    "category": "British Restaurant",
    "category_source": "google_types",
    "lat": 52.191343,
    "lon": -1.705451,
    "google_rating": 4.7,
    "google_reviews": 1372,
    "fsa_rating": 5,
    "price_level": 2
  },
  "1381156": {
    "experience": 8.49,
    "visibility": 6.8,
    "trust": 8.91,
    "conversion": 4.5,
    "prestige": 1.5,
    "overall": 6.96,
    "fhrsid": 1381156,
    "name": "Pick Thai Ltd",
    "postcode": "CV37 6HB",
    "category": "Thai Restaurant",
    "category_source": "google_types",
    "lat": 52.189545,
    "lon": -1.709018,
    "google_rating": 4.6,
    "google_reviews": 176,
    "fsa_rating": 5,
    "price_level": null
  },
  "1299513": {
    "experience": 10,
    "visibility": 3.97,
    "trust": 9.89,
    "conversion": 4.5,
    "prestige": 1.5,
    "overall": 7.09,
    "fhrsid": 1299513,
    "name": "Oxheart",
    "postcode": "CV36 5JJ",
    "category": "Restaurant (General)",
    "category_source": "google_types",
    "lat": null,
    "lon": null,
    "google_rating": 5.0,
    "google_reviews": 26,
    "fsa_rating": 5,
    "price_level": null
  },
  "1826837": {
    "experience": 6.98,
    "visibility": 7.87,
    "trust": 6.1,
    "conversion": 5.5,
    "prestige": 0.0,
    "overall": 6.02,
    "fhrsid": 1826837,
    "name": "Cafe Chutneys",
    "postcode": "CV37 0AX",
    "category": "Indian Restaurant",
    "category_source": "google_types",
    "lat": 52.2020464,
    "lon": -1.7163036,
    "google_rating": 4.2,
    "google_reviews": 291,
    "fsa_rating": 3,
    "price_level": 2
  },
  "1563336": {
    "experience": 6.62,
    "visibility": 3.8,
    "trust": 7.94,
    "conversion": 4.5,
    "prestige": 0.0,
    "overall": 5.41,
    "fhrsid": 1563336,
    "name": "Chopstix South",
    "postcode": "CV35 0AA",
    "category": "Asian Restaurant",
    "category_source": "google_types",
    "lat": 52.2193849,
    "lon": -1.5027416,
    "google_rating": 3.0,
    "google_reviews": 39,
    "fsa_rating": 5,
    "price_level": null
  },
  "1364372": {
    "experience": 8.49,
    "visibility": 8.32,
    "trust": 7.83,
    "conversion": 5.5,
    "prestige": 1.5,
    "overall": 7.14,
    "fhrsid": 1364372,
    "name": "The Bell Inn",
    "postcode": "CV37 8EB",
    "category": "Pub / Bar",
    "category_source": "google_types",
    "lat": 52.16821,
    "lon": -1.784119,
    "google_rating": 4.6,
    "google_reviews": 1157,
    "fsa_rating": 5,
    "price_level": 2
  },
  "503343": {
    "experience": 7.79,
    "visibility": 7.1,
    "trust": 7.94,
    "conversion": 2.5,
    "prestige": 0.0,
    "overall": 6.12,
    "fhrsid": 503343,
    "name": "Starbucks -  Southbound",
    "postcode": "CV35 0AA",
    "category": "Cafe / Coffee Shop",
    "category_source": "name_match",
    "lat": 52.216487,
    "lon": -1.505433,
    "google_rating": 4.0,
    "google_reviews": 10079,
    "fsa_rating": 5,
    "price_level": null
  },
  "1302779": {
    "experience": 7.79,
    "visibility": 5.78,
    "trust": 8.08,
    "conversion": 5.5,
    "prestige": 0.0,
    "overall": 6.34,
    "fhrsid": 1302779,
    "name": "The Olde Mint",
    "postcode": "CV47 0EP",
    "category": "Pub / Bar",
    "category_source": "google_types",
    "lat": 52.254223,
    "lon": -1.387452,
    "google_rating": 4.0,
    "google_reviews": 89,
    "fsa_rating": 5,
    "price_level": 2
  },
  "1826834": {
    "experience": 8.95,
    "visibility": 3.85,
    "trust": 8.83,
    "conversion": 4.5,
    "prestige": 0.0,
    "overall": 6.34,
    "fhrsid": 1826834,
    "name": "Ferment And Flour (Bastardos)",
    "postcode": "CV36 4PP",
    "category": "Cafe / Coffee Shop",
    "category_source": "google_types",
    "lat": 52.0627578,
    "lon": -1.6241489,
    "google_rating": 4.1,
    "google_reviews": 18,
    "fsa_rating": 5,
    "price_level": null
  },
  "1500965": {
    "experience": 9.42,
    "visibility": 7.75,
    "trust": 8.33,
    "conversion": 5.5,
    "prestige": 1.5,
    "overall": 7.43,
    "fhrsid": 1500965,
    "name": "Cafe Des Fleurs",
    "postcode": "B49 5AE",
    "category": "Pub / Bar",
    "category_source": "google_types",
    "lat": 52.2152873,
    "lon": -1.8696099,
    "google_rating": 4.5,
    "google_reviews": 206,
    "fsa_rating": 5,
    "price_level": 2
  },
  "503918": {
    "experience": 9.65,
    "visibility": 6.5,
    "trust": 7.63,
    "conversion": 5.5,
    "prestige": 1.5,
    "overall": 7.08,
    "fhrsid": 503918,
    "name": "Southam Gateway Coffee Shop Ltd",
    "postcode": "CV47 0EP",
    "category": "Cafe / Coffee Shop",
    "category_source": "google_types",
    "lat": 52.254224,
    "lon": -1.387452,
    "google_rating": 4.7,
    "google_reviews": 97,
    "fsa_rating": 5,
    "price_level": 1
  },
  "1622074": {
    "experience": 9.18,
    "visibility": 3.09,
    "trust": 7.79,
    "conversion": null,
    "prestige": 0.0,
    "overall": 6.26,
    "fhrsid": 1622074,
    "name": "Lexi's Loving Spoonful",
    "postcode": "CV47 2QZ",
    "category": "Other",
    "category_source": "unclassified",
    "lat": 52.2062085,
    "lon": -1.4410618,
    "google_rating": 4.3,
    "google_reviews": 6,
    "fsa_rating": 5,
    "price_level": null
  },
  "1799218": {
    "experience": 8.72,
    "visibility": 6.71,
    "trust": 8.57,
    "conversion": 4.5,
    "prestige": 1.5,
    "overall": 6.93,
    "fhrsid": 1799218,
    "name": "Pizza Junction Kineton Ltd",
    "postcode": "CV35 0LN",
    "category": "Italian Restaurant",
    "category_source": "google_types",
    "lat": null,
    "lon": null,
    "google_rating": 4.8,
    "google_reviews": 133,
    "fsa_rating": 5,
    "price_level": null
  },
  "503972": {
    "experience": 8.38,
    "visibility": 8.28,
    "trust": 8.34,
    "conversion": 5.5,
    "prestige": 1.5,
    "overall": 7.23,
    "fhrsid": 503972,
    "name": "The George Hotel",
    "postcode": "CV36 4AJ",
    "category": "British Restaurant",
    "category_source": "google_types",
    "lat": 52.062944,
    "lon": -1.62445,
    "google_rating": 4.5,
    "google_reviews": 1034,
    "fsa_rating": 5,
    "price_level": 2
  },
  "1712197": {
    "experience": 8.96,
    "visibility": 3.38,
    "trust": 7.14,
    "conversion": 4.5,
    "prestige": 1.5,
    "overall": 5.97,
    "fhrsid": 1712197,
    "name": "The Sandwich Shop",
    "postcode": "B95 5AT",
    "category": "Fast Food / Quick Service",
    "category_source": "google_types",
    "lat": 52.294209,
    "lon": -1.778947,
    "google_rating": 5.0,
    "google_reviews": 8,
    "fsa_rating": 5,
    "price_level": null
  },
  "1291215": {
    "experience": 7.21,
    "visibility": 2.97,
    "trust": 8.78,
    "conversion": 4.5,
    "prestige": 0.0,
    "overall": 5.63,
    "fhrsid": 1291215,
    "name": "Gardener's Retreat",
    "postcode": "B80 7DR",
    "category": "Restaurant (General)",
    "category_source": "google_types",
    "lat": 52.2990531921387,
    "lon": -1.87556004524231,
    "google_rating": 3.5,
    "google_reviews": 12,
    "fsa_rating": 5,
    "price_level": null
  },
  "676556": {
    "experience": 9.88,
    "visibility": 7.82,
    "trust": 7.16,
    "conversion": 5.5,
    "prestige": 1.5,
    "overall": 7.29,
    "fhrsid": 676556,
    "name": "The Straw Kitchen",
    "postcode": "CV36 5PG",
    "category": "Cafe / Coffee Shop",
    "category_source": "google_types",
    "lat": 52.009626,
    "lon": -1.544284,
    "google_rating": 4.9,
    "google_reviews": 250,
    "fsa_rating": 5,
    "price_level": 2
  },
  "503032": {
    "experience": 8.49,
    "visibility": 6.69,
    "trust": 8.68,
    "conversion": 6.0,
    "prestige": 1.5,
    "overall": 7.11,
    "fhrsid": 503032,
    "name": "The Spice Room",
    "postcode": "B49 5AD",
    "category": "Indian Restaurant",
    "category_source": "google_types",
    "lat": 52.21469,
    "lon": -1.86975,
    "google_rating": 4.6,
    "google_reviews": 127,
    "fsa_rating": 5,
    "price_level": null
  },
  "1911092": {
    "experience": 9.0,
    "visibility": 3.54,
    "trust": 0.0,
    "conversion": 2.0,
    "prestige": 1.5,
    "overall": 3.86,
    "fhrsid": 1911092,
    "name": "Coughton Court Cafe",
    "postcode": "B49 5JA",
    "category": "Cafe / Coffee Shop",
    "category_source": "google_types",
    "lat": 52.243748,
    "lon": -1.879712,
    "google_rating": 4.5,
    "google_reviews": 13,
    "fsa_rating": null,
    "price_level": null
  },
  "1800190": {
    "experience": 8.03,
    "visibility": 3.09,
    "trust": 5.58,
    "conversion": null,
    "prestige": 0.0,
    "overall": 5.2,
    "fhrsid": 1800190,
    "name": "CAMEO Lunch Club",
    "postcode": "",
    "category": "Catering",
    "category_source": "name_match",
    "lat": null,
    "lon": null,
    "google_rating": 4.2,
    "google_reviews": 20,
    "fsa_rating": 3,
    "price_level": null
  },
  "1339997": {
    "experience": 8.14,
    "visibility": 5.51,
    "trust": 7.68,
    "conversion": 6.0,
    "prestige": 0.0,
    "overall": 6.36,
    "fhrsid": 1339997,
    "name": "The Margin",
    "postcode": "CV47 9PZ",
    "category": "Takeaway",
    "category_source": "google_types",
    "lat": 52.2886924743652,
    "lon": -1.3942209482193,
    "google_rating": 4.3,
    "google_reviews": 73,
    "fsa_rating": 5,
    "price_level": null
  },
  "1747703": {
    "experience": 9.18,
    "visibility": 7.42,
    "trust": 8.24,
    "conversion": 4.5,
    "prestige": 0.0,
    "overall": 6.97,
    "fhrsid": 1747703,
    "name": "GAIL's Stratford-Upon-Avon",
    "postcode": "CV37 6AU",
    "category": "Fast Food / Quick Service",
    "category_source": "google_types",
    "lat": 52.192375,
    "lon": -1.706138,
    "google_rating": 4.3,
    "google_reviews": 139,
    "fsa_rating": 5,
    "price_level": null
  },
  "1452414": {
    "experience": 5.36,
    "visibility": 7.82,
    "trust": 5.82,
    "conversion": 7.0,
    "prestige": 0.0,
    "overall": 5.68,
    "fhrsid": 1452414,
    "name": "Subway",
    "postcode": "CV37 0HZ",
    "category": "Fast Food / Quick Service",
    "category_source": "google_types",
    "lat": 52.200715,
    "lon": -1.71089,
    "google_rating": 3.7,
    "google_reviews": 256,
    "fsa_rating": 2,
    "price_level": 1
  },
  "503481": {
    "experience": 8.72,
    "visibility": 8.07,
    "trust": 8.45,
    "conversion": 5.5,
    "prestige": 1.5,
    "overall": 7.32,
    "fhrsid": 503481,
    "name": "The Opposition",
    "postcode": "CV37 6EF",
    "category": "French Restaurant",
    "category_source": "google_types",
    "lat": 52.191343,
    "lon": -1.705451,
    "google_rating": 4.8,
    "google_reviews": 533,
    "fsa_rating": 5,
    "price_level": 2
  },
  "1808717": {
    "experience": 8.2,
    "visibility": 8.26,
    "trust": 9.34,
    "conversion": 5.5,
    "prestige": 0.0,
    "overall": 7.27,
    "fhrsid": 1808717,
    "name": "Bistrot Pierre",
    "postcode": "CV37 7LT",
    "category": "French Restaurant",
    "category_source": "google_types",
    "lat": 52.1905212402344,
    "lon": -1.69976699352264,
    "google_rating": 4.1,
    "google_reviews": 970,
    "fsa_rating": 5,
    "price_level": 2
  },
  "503820": {
    "experience": 8.61,
    "visibility": 7.77,
    "trust": 8.66,
    "conversion": 5.5,
    "prestige": 1.5,
    "overall": 7.28,
    "fhrsid": 503820,
    "name": "Cafe 16",
    "postcode": "CV47 0HF",
    "category": "Cafe / Coffee Shop",
    "category_source": "google_types",
    "lat": 52.252388,
    "lon": -1.388854,
    "google_rating": 4.7,
    "google_reviews": 215,
    "fsa_rating": 5,
    "price_level": 1
  },
  "1253303": {
    "experience": 9.65,
    "visibility": 6.21,
    "trust": 8.7,
    "conversion": 4.5,
    "prestige": 1.5,
    "overall": 7.14,
    "fhrsid": 1253303,
    "name": "Ettington Garden Cafe",
    "postcode": "CV37 7TB",
    "category": "Cafe / Coffee Shop",
    "category_source": "google_types",
    "lat": 52.1376694,
    "lon": -1.6077404,
    "google_rating": 4.7,
    "google_reviews": 73,
    "fsa_rating": 5,
    "price_level": null
  },
  "1206081": {
    "experience": 9.65,
    "visibility": 6.5,
    "trust": 8.01,
    "conversion": null,
    "prestige": 1.5,
    "overall": 7.47,
    "fhrsid": 1206081,
    "name": "South Costa",
    "postcode": "CV35 0RR",
    "category": "Cafe / Coffee Shop",
    "category_source": "name_match",
    "lat": 52.1946487426758,
    "lon": -1.48444700241089,
    "google_rating": 4.7,
    "google_reviews": 600,
    "fsa_rating": 5,
    "price_level": null
  },
  "1705603": {
    "experience": 10,
    "visibility": 1.35,
    "trust": 7.06,
    "conversion": 2.5,
    "prestige": 1.5,
    "overall": 5.56,
    "fhrsid": 1705603,
    "name": "Escape Arts",
    "postcode": "CV37 6EE",
    "category": "Other",
    "category_source": "unclassified",
    "lat": 52.191764831543,
    "lon": -1.70544803142548,
    "google_rating": 5.0,
    "google_reviews": 1,
    "fsa_rating": 5,
    "price_level": null
  },
  "1739369": {
    "experience": 10,
    "visibility": 1.36,
    "trust": 7.36,
    "conversion": 4.5,
    "prestige": 1.5,
    "overall": 5.94,
    "fhrsid": 1739369,
    "name": "Paul's Catering",
    "postcode": "CV37",
    "category": "Food & Drink",
    "category_source": "google_types",
    "lat": null,
    "lon": null,
    "google_rating": 5.0,
    "google_reviews": 3,
    "fsa_rating": 5,
    "price_level": null
  },
  "1024960": {
    "experience": 8.13,
    "visibility": 8.1,
    "trust": 9.81,
    "conversion": 7.0,
    "prestige": 0.0,
    "overall": 7.56,
    "fhrsid": 1024960,
    "name": "Starbucks Drive Thru",
    "postcode": "CV35 0AA",
    "category": "Fast Food / Quick Service",
    "category_source": "google_types",
    "lat": 52.2164878845215,
    "lon": -1.50543296337128,
    "google_rating": 3.4,
    "google_reviews": 587,
    "fsa_rating": 5,
    "price_level": 2
  },
  "503345": {
    "experience": 6.97,
    "visibility": 7.95,
    "trust": 9.17,
    "conversion": 7.0,
    "prestige": 0.0,
    "overall": 7.02,
    "fhrsid": 503345,
    "name": "KFC - Southbound",
    "postcode": "CV35 0AA",
    "category": "American / Grill",
    "category_source": "google_types",
    "lat": 52.216487,
    "lon": -1.505433,
    "google_rating": 3.3,
    "google_reviews": 373,
    "fsa_rating": 5,
    "price_level": 1
  },
  "1266904": {
    "experience": 7.68,
    "visibility": 5.6,
    "trust": 8.15,
    "conversion": 2.5,
    "prestige": 0.0,
    "overall": 5.84,
    "fhrsid": 1266904,
    "name": "Good Breakfast",
    "postcode": "CV35 0AA",
    "category": "Other",
    "category_source": "unclassified",
    "lat": 52.2164878845215,
    "lon": -1.50543296337128,
    "google_rating": 3.9,
    "google_reviews": 9507,
    "fsa_rating": 5,
    "price_level": null
  },
  "1297845": {
    "experience": 9.42,
    "visibility": 7.74,
    "trust": 8.14,
    "conversion": 5.5,
    "prestige": 1.5,
    "overall": 7.38,
    "fhrsid": 1297845,
    "name": "Lounge@26",
    "postcode": "B49 5AB",
    "category": "Cafe / Coffee Shop",
    "category_source": "google_types",
    "lat": 52.214124,
    "lon": -1.870176,
    "google_rating": 4.5,
    "google_reviews": 198,
    "fsa_rating": 5,
    "price_level": 1
  },
  "1089841": {
    "experience": 9.88,
    "visibility": 5.44,
    "trust": 7.59,
    "conversion": 2.5,
    "prestige": 1.5,
    "overall": 6.47,
    "fhrsid": 1089841,
    "name": "Cotswold Distillery Cafe",
    "postcode": "CV36 5HG",
    "category": "Cafe / Coffee Shop",
    "category_source": "name_match",
    "lat": 52.0283164978027,
    "lon": -1.57017004489899,
    "google_rating": 4.9,
    "google_reviews": 1239,
    "fsa_rating": 5,
    "price_level": null
  },
  "1672985": {
    "experience": 9.77,
    "visibility": 7.49,
    "trust": 7.94,
    "conversion": 4.5,
    "prestige": 1.5,
    "overall": 7.24,
    "fhrsid": 1672985,
    "name": "Bidford Community Fridge & Cafe",
    "postcode": "B50 4QB",
    "category": "Cafe / Coffee Shop",
    "category_source": "google_types",
    "lat": null,
    "lon": null,
    "google_rating": 4.8,
    "google_reviews": 173,
    "fsa_rating": 5,
    "price_level": null
  },
  "503054": {
    "experience": 8.83,
    "visibility": 8.13,
    "trust": 9.62,
    "conversion": 2.5,
    "prestige": 0.0,
    "overall": 7.05,
    "fhrsid": 503054,
    "name": "Stratford Manor Hotel",
    "postcode": "CV37 0PY",
    "category": "Hotel / Accommodation",
    "category_source": "google_types",
    "lat": 52.226752,
    "lon": -1.663361,
    "google_rating": 4.0,
    "google_reviews": 1179,
    "fsa_rating": 5,
    "price_level": null
  },
  "503525": {
    "experience": 9.65,
    "visibility": 7.91,
    "trust": 8.15,
    "conversion": 5.5,
    "prestige": 1.5,
    "overall": 7.49,
    "fhrsid": 503525,
    "name": "Shah's",
    "postcode": "CV35 9LU",
    "category": "Indian Restaurant",
    "category_source": "google_types",
    "lat": 52.199139,
    "lon": -1.59631,
    "google_rating": 4.7,
    "google_reviews": 331,
    "fsa_rating": 5,
    "price_level": 2
  },
  "504014": {
    "experience": 9.18,
    "visibility": 8.49,
    "trust": 8.46,
    "conversion": 5.5,
    "prestige": 0.0,
    "overall": 7.39,
    "fhrsid": 504014,
    "name": "The Kings Head",
    "postcode": "CV35 9LT",
    "category": "British Restaurant",
    "category_source": "google_types",
    "lat": 52.197965,
    "lon": -1.594916,
    "google_rating": 4.3,
    "google_reviews": 1952,
    "fsa_rating": 5,
    "price_level": 2
  },
  "1284339": {
    "experience": 8.61,
    "visibility": 7.96,
    "trust": 6.86,
    "conversion": 5.5,
    "prestige": 1.5,
    "overall": 6.87,
    "fhrsid": 1284339,
    "name": "The Yew Tree",
    "postcode": "CV47 2AS",
    "category": "Pub / Bar",
    "category_source": "google_types",
    "lat": 52.1462707519531,
    "lon": -1.40400099754334,
    "google_rating": 4.7,
    "google_reviews": 391,
    "fsa_rating": 4,
    "price_level": 2
  },
  "1774612": {
    "experience": 9.53,
    "visibility": 5.8,
    "trust": 8.01,
    "conversion": 4.5,
    "prestige": 1.5,
    "overall": 6.85,
    "fhrsid": 1774612,
    "name": "International Circus Churros 2",
    "postcode": "CV37 0RN",
    "category": "Bakery / Desserts",
    "category_source": "google_types",
    "lat": 52.215319,
    "lon": -1.727569,
    "google_rating": 4.6,
    "google_reviews": 441,
    "fsa_rating": 5,
    "price_level": null
  },
  "502872": {
    "experience": 9.65,
    "visibility": 8.08,
    "trust": 8.02,
    "conversion": 4.5,
    "prestige": 1.5,
    "overall": 7.34,
    "fhrsid": 502872,
    "name": "Ettington Park Hotel",
    "postcode": "CV37 8BU",
    "category": "Hotel / Accommodation",
    "category_source": "google_types",
    "lat": 52.123913,
    "lon": -1.640049,
    "google_rating": 4.7,
    "google_reviews": 1021,
    "fsa_rating": 5,
    "price_level": null
  },
  "1210746": {
    "experience": 7.91,
    "visibility": 7.85,
    "trust": 9.67,
    "conversion": 4.5,
    "prestige": 0.0,
    "overall": 7.04,
    "fhrsid": 1210746,
    "name": "The Alcester Inn",
    "postcode": "B49 6AQ",
    "category": "Pub / Bar",
    "category_source": "google_types",
    "lat": 52.220189,
    "lon": -1.867201,
    "google_rating": 4.1,
    "google_reviews": 513,
    "fsa_rating": 5,
    "price_level": null
  },
  "503216": {
    "experience": 5.71,
    "visibility": 8.18,
    "trust": 5.53,
    "conversion": 4.5,
    "prestige": 0.0,
    "overall": 5.41,
    "fhrsid": 503216,
    "name": "Welcombe Hotel Golf Resort \\& Spa",
    "postcode": "CV37 0NR",
    "category": "Hotel / Accommodation",
    "category_source": "google_types",
    "lat": 52.20955,
    "lon": -1.688691,
    "google_rating": 4.0,
    "google_reviews": 1394,
    "fsa_rating": 2,
    "price_level": null
  },
  "503781": {
    "experience": 9.18,
    "visibility": 7.37,
    "trust": 8.16,
    "conversion": 7.0,
    "prestige": 0.0,
    "overall": 7.32,
    "fhrsid": 503781,
    "name": "The Bishops Fryer",
    "postcode": "CV47 2RN",
    "category": "Takeaway",
    "category_source": "google_types",
    "lat": 52.217188,
    "lon": -1.429707,
    "google_rating": 4.3,
    "google_reviews": 253,
    "fsa_rating": 5,
    "price_level": 1
  },
  "1421980": {
    "experience": 7.91,
    "visibility": 7.48,
    "trust": 7.28,
    "conversion": 2.0,
    "prestige": 0.0,
    "overall": 5.99,
    "fhrsid": 1421980,
    "name": "Tzatziki34",
    "postcode": "CV37 6AB",
    "category": "Mediterranean Restaurant",
    "category_source": "google_types",
    "lat": 52.1924806,
    "lon": -1.7052303,
    "google_rating": 4.1,
    "google_reviews": 302,
    "fsa_rating": 4,
    "price_level": null
  },
  "1246463": {
    "experience": 8.95,
    "visibility": 5.55,
    "trust": 7.56,
    "conversion": 4.5,
    "prestige": 0.0,
    "overall": 6.36,
    "fhrsid": 1246463,
    "name": "The Avon Lounge",
    "postcode": "CV37 6LP",
    "category": "Pub / Bar",
    "category_source": "google_types",
    "lat": 52.1924018,
    "lon": -1.7097514,
    "google_rating": 4.1,
    "google_reviews": 83,
    "fsa_rating": 5,
    "price_level": null
  },
  "1847445": {
    "experience": 9.65,
    "visibility": 7.37,
    "trust": 8.47,
    "conversion": 4.5,
    "prestige": 1.5,
    "overall": 7.31,
    "fhrsid": 1847445,
    "name": "Soma",
    "postcode": "CV37 6EX",
    "category": "Italian Restaurant",
    "category_source": "google_types",
    "lat": 52.1921785,
    "lon": -1.7068073,
    "google_rating": 4.7,
    "google_reviews": 120,
    "fsa_rating": 5,
    "price_level": null
  },
  "1774606": {
    "experience": 9.77,
    "visibility": 7.65,
    "trust": 7.8,
    "conversion": 4.5,
    "prestige": 1.5,
    "overall": 7.24,
    "fhrsid": 1774606,
    "name": "Bumbles",
    "postcode": "B80 7AN",
    "category": "Italian Restaurant",
    "category_source": "google_types",
    "lat": 52.2742157,
    "lon": -1.8940932,
    "google_rating": 4.8,
    "google_reviews": 275,
    "fsa_rating": 5,
    "price_level": null
  },
  "650308": {
    "experience": 6.75,
    "visibility": 8.06,
    "trust": 4.93,
    "conversion": 5.5,
    "prestige": 0.0,
    "overall": 5.69,
    "fhrsid": 650308,
    "name": "New Summer Palace Restaurant",
    "postcode": "B80 7DF",
    "category": "Chinese Restaurant",
    "category_source": "google_types",
    "lat": 52.294904,
    "lon": -1.880937,
    "google_rating": 4.0,
    "google_reviews": 522,
    "fsa_rating": 3,
    "price_level": 2
  },
  "1896717": {
    "experience": 10,
    "visibility": 5.51,
    "trust": 9.79,
    "conversion": 4.5,
    "prestige": 1.5,
    "overall": 7.37,
    "fhrsid": 1896717,
    "name": "Lithos Restaurant",
    "postcode": "B95 5BX",
    "category": "Restaurant (General)",
    "category_source": "google_types",
    "lat": 52.293749,
    "lon": -1.7797042,
    "google_rating": 5.0,
    "google_reviews": 72,
    "fsa_rating": 5,
    "price_level": null
  },
  "1622082": {
    "experience": 7.5,
    "visibility": 0.4,
    "trust": 7.97,
    "conversion": null,
    "prestige": 0.0,
    "overall": 5.09,
    "fhrsid": 1622082,
    "name": "The Crofts Cafe Also Trading As New York Pizzas",
    "postcode": "CV37 6PH",
    "category": "American / Grill",
    "category_source": "google_types",
    "lat": 52.1931571960449,
    "lon": -1.71493399143219,
    "google_rating": null,
    "google_reviews": null,
    "fsa_rating": 5,
    "price_level": null
  },
  "503732": {
    "experience": 9.42,
    "visibility": 8.27,
    "trust": 7.59,
    "conversion": 4.5,
    "prestige": 1.5,
    "overall": 7.2,
    "fhrsid": 503732,
    "name": "Pizza Hut Restaurants - Dine In",
    "postcode": "CV37 0HZ",
    "category": "Italian Restaurant",
    "category_source": "google_types",
    "lat": 52.201275,
    "lon": -1.711838,
    "google_rating": 4.5,
    "google_reviews": 1831,
    "fsa_rating": 5,
    "price_level": 2
  },
  "1388310": {
    "experience": 8.03,
    "visibility": 8.08,
    "trust": 7.94,
    "conversion": 5.5,
    "prestige": 0.0,
    "overall": 6.84,
    "fhrsid": 1388310,
    "name": "The Coach House",
    "postcode": "CV37 6LP",
    "category": "Pub / Bar",
    "category_source": "google_types",
    "lat": 52.1921059,
    "lon": -1.7100459,
    "google_rating": 4.2,
    "google_reviews": 565,
    "fsa_rating": 5,
    "price_level": 2
  },
  "1552328": {
    "experience": 9.65,
    "visibility": 7.84,
    "trust": 7.79,
    "conversion": 7.0,
    "prestige": 1.5,
    "overall": 7.61,
    "fhrsid": 1552328,
    "name": "The Phoenix",
    "postcode": "CV37 6QY",
    "category": "Italian Restaurant",
    "category_source": "google_types",
    "lat": 52.1935788,
    "lon": -1.7058083,
    "google_rating": 4.7,
    "google_reviews": 272,
    "fsa_rating": 5,
    "price_level": 2
  },
  "502702": {
    "experience": 9.18,
    "visibility": 7.86,
    "trust": 7.94,
    "conversion": 4.5,
    "prestige": 0.0,
    "overall": 6.99,
    "fhrsid": 502702,
    "name": "Bannatyne Health Club And Spa Wildmoor",
    "postcode": "CV37 9RJ",
    "category": "Restaurant (General)",
    "category_source": "google_types",
    "lat": 52.198685,
    "lon": -1.750759,
    "google_rating": 4.3,
    "google_reviews": 530,
    "fsa_rating": 5,
    "price_level": null
  },
  "1739370": {
    "experience": 8.61,
    "visibility": 7.83,
    "trust": 7.61,
    "conversion": 4.5,
    "prestige": 1.5,
    "overall": 6.88,
    "fhrsid": 1739370,
    "name": "Corte Campana",
    "postcode": "CV37 6EX",
    "category": "Italian Restaurant",
    "category_source": "google_types",
    "lat": 52.1919578,
    "lon": -1.708133,
    "google_rating": 4.7,
    "google_reviews": 481,
    "fsa_rating": 5,
    "price_level": null
  },
  "1014807": {
    "experience": 7.56,
    "visibility": 8.5,
    "trust": 9.53,
    "conversion": 5.5,
    "prestige": 0.0,
    "overall": 7.18,
    "fhrsid": 1014807,
    "name": "McDonald's",
    "postcode": "CV37 0AH",
    "category": "American / Grill",
    "category_source": "google_types",
    "lat": 52.1963920593262,
    "lon": -1.71459102630615,
    "google_rating": 3.8,
    "google_reviews": 2386,
    "fsa_rating": 5,
    "price_level": 1
  },
  "1093181": {
    "experience": 9.07,
    "visibility": 7.87,
    "trust": 7.13,
    "conversion": 3.0,
    "prestige": 0.0,
    "overall": 6.53,
    "fhrsid": 1093181,
    "name": "Coffee#1 Limited",
    "postcode": "CV37 6EY",
    "category": "Cafe / Coffee Shop",
    "category_source": "google_types",
    "lat": 52.1931571960449,
    "lon": -1.70779502391815,
    "google_rating": 4.2,
    "google_reviews": 538,
    "fsa_rating": 5,
    "price_level": 2
  },
  "503376": {
    "experience": 9.53,
    "visibility": 5.43,
    "trust": 8.76,
    "conversion": 4.5,
    "prestige": 1.5,
    "overall": 6.96,
    "fhrsid": 503376,
    "name": "The Garden Cafe",
    "postcode": "B49 5PD",
    "category": "Food & Drink",
    "category_source": "google_types",
    "lat": 52.183599,
    "lon": -1.905908,
    "google_rating": 4.6,
    "google_reviews": 1191,
    "fsa_rating": 5,
    "price_level": null
  },
  "1016715": {
    "experience": 9.53,
    "visibility": 5.56,
    "trust": 9.42,
    "conversion": 3.5,
    "prestige": 1.5,
    "overall": 7.0,
    "fhrsid": 1016715,
    "name": "Shakespaw Cat Cafe",
    "postcode": "CV37 6QT",
    "category": "Cafe / Coffee Shop",
    "category_source": "google_types",
    "lat": 52.1932411193848,
    "lon": -1.7060090303421,
    "google_rating": 4.6,
    "google_reviews": 952,
    "fsa_rating": 5,
    "price_level": 2
  },
  "504026": {
    "experience": 9.53,
    "visibility": 5.28,
    "trust": 7.86,
    "conversion": null,
    "prestige": 1.5,
    "overall": 7.09,
    "fhrsid": 504026,
    "name": "Ragley Hall Catering",
    "postcode": "B49 5NJ",
    "category": "Hotel / Accommodation",
    "category_source": "name_match",
    "lat": 52.198973,
    "lon": -1.895532,
    "google_rating": 4.6,
    "google_reviews": 1395,
    "fsa_rating": 5,
    "price_level": null
  },
  "1747706": {
    "experience": 9.3,
    "visibility": 8.22,
    "trust": 5.68,
    "conversion": 7.0,
    "prestige": 0.0,
    "overall": 6.9,
    "fhrsid": 1747706,
    "name": "The Long Itch Diner",
    "postcode": "CV47 9QZ",
    "category": "Fast Food / Quick Service",
    "category_source": "google_types",
    "lat": 52.277619,
    "lon": -1.389622,
    "google_rating": 4.4,
    "google_reviews": 849,
    "fsa_rating": 4,
    "price_level": 1
  },
  "503114": {
    "experience": 7.33,
    "visibility": 7.87,
    "trust": 3.79,
    "conversion": 5.5,
    "prestige": 1.5,
    "overall": 5.7,
    "fhrsid": 503114,
    "name": "Mount Everest Nepalese Cuisine",
    "postcode": "B80 7NL",
    "category": "Restaurant (General)",
    "category_source": "google_types",
    "lat": 52.270346,
    "lon": -1.893884,
    "google_rating": 4.5,
    "google_reviews": 297,
    "fsa_rating": 2,
    "price_level": 2
  },
  "1871630": {
    "experience": 9.07,
    "visibility": 7.87,
    "trust": 8.89,
    "conversion": 5.5,
    "prestige": 0.0,
    "overall": 7.34,
    "fhrsid": 1871630,
    "name": "LeBuns",
    "postcode": "CV35 0JS",
    "category": "Pub / Bar",
    "category_source": "google_types",
    "lat": 52.155905,
    "lon": -1.508881,
    "google_rating": 4.2,
    "google_reviews": 294,
    "fsa_rating": 5,
    "price_level": 2
  },
  "1695933": {
    "experience": 7.1,
    "visibility": 8.36,
    "trust": 5.59,
    "conversion": 5.5,
    "prestige": 0.0,
    "overall": 6.02,
    "fhrsid": 1695933,
    "name": "Hobsons Patisseries",
    "postcode": "CV37 6PT",
    "category": "Cafe / Coffee Shop",
    "category_source": "google_types",
    "lat": 52.193236,
    "lon": -1.707472,
    "google_rating": 4.3,
    "google_reviews": 1321,
    "fsa_rating": 3,
    "price_level": 2
  },
  "503735": {
    "experience": 8.95,
    "visibility": 8.07,
    "trust": 9.65,
    "conversion": 5.5,
    "prestige": 0.0,
    "overall": 7.54,
    "fhrsid": 503735,
    "name": "Costa",
    "postcode": "CV37 0HZ",
    "category": "Cafe / Coffee Shop",
    "category_source": "google_types",
    "lat": 52.201275,
    "lon": -1.711838,
    "google_rating": 4.1,
    "google_reviews": 541,
    "fsa_rating": 5,
    "price_level": 2
  },
  "1152776": {
    "experience": 9.77,
    "visibility": 8.25,
    "trust": 9.21,
    "conversion": 5.5,
    "prestige": 1.5,
    "overall": 7.86,
    "fhrsid": 1152776,
    "name": "Gilks' Garage Cafe",
    "postcode": "CV35 0JZ",
    "category": "Cafe / Coffee Shop",
    "category_source": "google_types",
    "lat": 52.154982,
    "lon": -1.5018221,
    "google_rating": 4.8,
    "google_reviews": 935,
    "fsa_rating": 5,
    "price_level": 2
  },
  "503292": {
    "experience": 9.18,
    "visibility": 8.29,
    "trust": 6.25,
    "conversion": 5.5,
    "prestige": 0.0,
    "overall": 6.8,
    "fhrsid": 503292,
    "name": "Wildwood Kitchen",
    "postcode": "CV37 6EF",
    "category": "Italian Restaurant",
    "category_source": "google_types",
    "lat": 52.191343,
    "lon": -1.705451,
    "google_rating": 4.3,
    "google_reviews": 1055,
    "fsa_rating": 4,
    "price_level": 2
  },
  "1800192": {
    "experience": 5.59,
    "visibility": 7.45,
    "trust": 2.41,
    "conversion": 2.0,
    "prestige": 0.0,
    "overall": 4.07,
    "fhrsid": 1800192,
    "name": "Havilands Tea Room And Restaurant",
    "postcode": "CV37 6QB",
    "category": "Cafe / Coffee Shop",
    "category_source": "google_types",
    "lat": 52.193364,
    "lon": -1.708422,
    "google_rating": 3.9,
    "google_reviews": 277,
    "fsa_rating": 1,
    "price_level": null
  },
  "1754520": {
    "experience": 8.61,
    "visibility": 5.4,
    "trust": 7.36,
    "conversion": 4.5,
    "prestige": 1.5,
    "overall": 6.33,
    "fhrsid": 1754520,
    "name": "Cinnamon Arch",
    "postcode": "CV47 9QJ",
    "category": "Indian Restaurant",
    "category_source": "google_types",
    "lat": null,
    "lon": null,
    "google_rating": 4.7,
    "google_reviews": 52,
    "fsa_rating": 5,
    "price_level": null
  },
  "1206075": {
    "experience": 9.65,
    "visibility": 5.0,
    "trust": 7.63,
    "conversion": null,
    "prestige": 1.5,
    "overall": 7.0,
    "fhrsid": 1206075,
    "name": "Dec X Canteen",
    "postcode": "CV35 0RR",
    "category": "Cafe / Coffee Shop",
    "category_source": "name_match",
    "lat": 52.1946487426758,
    "lon": -1.48444700241089,
    "google_rating": 4.7,
    "google_reviews": 600,
    "fsa_rating": 5,
    "price_level": null
  },
  "503960": {
    "experience": 8.61,
    "visibility": 7.74,
    "trust": 7.11,
    "conversion": 5.5,
    "prestige": 1.5,
    "overall": 6.88,
    "fhrsid": 503960,
    "name": "Blue Bean Coffee Shop",
    "postcode": "CV36 4AF",
    "category": "Cafe / Coffee Shop",
    "category_source": "google_types",
    "lat": 52.0636317,
    "lon": -1.6247105,
    "google_rating": 4.7,
    "google_reviews": 200,
    "fsa_rating": 5,
    "price_level": 2
  },
  "1842631": {
    "experience": 9.65,
    "visibility": 6.62,
    "trust": 8.7,
    "conversion": 4.5,
    "prestige": 1.5,
    "overall": 7.22,
    "fhrsid": 1842631,
    "name": "Snitterfield Arms",
    "postcode": "CV37 0JH",
    "category": "Pub / Bar",
    "category_source": "google_types",
    "lat": 52.23776,
    "lon": -1.691218,
    "google_rating": 4.7,
    "google_reviews": 102,
    "fsa_rating": 5,
    "price_level": null
  },
  "1896714": {
    "experience": 9.3,
    "visibility": 8.09,
    "trust": 9.18,
    "conversion": 5.5,
    "prestige": 0.0,
    "overall": 7.53,
    "fhrsid": 1896714,
    "name": "The Townhouse Also Trading As JR Hotel And Restaurants LTD",
    "postcode": "CV37 6HB",
    "category": "Pub / Bar",
    "category_source": "google_types",
    "lat": 52.1904927,
    "lon": -1.7084471,
    "google_rating": 4.4,
    "google_reviews": 576,
    "fsa_rating": 5,
    "price_level": 2
  },
  "1291217": {
    "experience": 7.68,
    "visibility": 3.38,
    "trust": 7.05,
    "conversion": 4.5,
    "prestige": 0.0,
    "overall": 5.42,
    "fhrsid": 1291217,
    "name": "Gardener's Retreat",
    "postcode": "CV35 9ER",
    "category": "Restaurant (General)",
    "category_source": "google_types",
    "lat": 52.204086,
    "lon": -1.616005,
    "google_rating": 3.9,
    "google_reviews": 8,
    "fsa_rating": 5,
    "price_level": null
  },
  "1228994": {
    "experience": 9.53,
    "visibility": 6.45,
    "trust": 8.19,
    "conversion": 4.5,
    "prestige": 1.5,
    "overall": 7.02,
    "fhrsid": 1228994,
    "name": "Mor",
    "postcode": "CV37 6EX",
    "category": "Bakery / Desserts",
    "category_source": "google_types",
    "lat": 52.1923332214355,
    "lon": -1.70784997940063,
    "google_rating": 4.6,
    "google_reviews": 275,
    "fsa_rating": 5,
    "price_level": null
  },
  "503552": {
    "experience": 9.18,
    "visibility": 8.04,
    "trust": 7.62,
    "conversion": 2.0,
    "prestige": 0.0,
    "overall": 6.57,
    "fhrsid": 503552,
    "name": "Premier Inn",
    "postcode": "CV37 0AZ",
    "category": "Hotel / Accommodation",
    "category_source": "google_types",
    "lat": 52.202745,
    "lon": -1.71736,
    "google_rating": 4.3,
    "google_reviews": 1687,
    "fsa_rating": 5,
    "price_level": null
  },
  "503821": {
    "experience": 7.91,
    "visibility": 6.73,
    "trust": 6.83,
    "conversion": 6.0,
    "prestige": 0.0,
    "overall": 6.33,
    "fhrsid": 503821,
    "name": "The Balti Hut",
    "postcode": "CV47 0HA",
    "category": "Indian Restaurant",
    "category_source": "google_types",
    "lat": 52.253163,
    "lon": -1.387481,
    "google_rating": 4.1,
    "google_reviews": 144,
    "fsa_rating": 4,
    "price_level": null
  },
  "1790270": {
    "experience": 8.49,
    "visibility": 7.78,
    "trust": 5.06,
    "conversion": 4.5,
    "prestige": 1.5,
    "overall": 6.19,
    "fhrsid": 1790270,
    "name": "Bardia's",
    "postcode": "CV37 6EE",
    "category": "Cafe / Coffee Shop",
    "category_source": "google_types",
    "lat": 52.1916781,
    "lon": -1.7042993,
    "google_rating": 4.6,
    "google_reviews": 416,
    "fsa_rating": 3,
    "price_level": null
  },
  "1854458": {
    "experience": 10,
    "visibility": 4.02,
    "trust": 9.05,
    "conversion": 4.5,
    "prestige": 1.5,
    "overall": 6.89,
    "fhrsid": 1854458,
    "name": "Costa Coffee",
    "postcode": "B49 6PQ",
    "category": "Cafe / Coffee Shop",
    "category_source": "google_types",
    "lat": 52.2048717,
    "lon": -1.8767239,
    "google_rating": 5.0,
    "google_reviews": 9,
    "fsa_rating": 5,
    "price_level": null
  },
  "503479": {
    "experience": 9.42,
    "visibility": 5.8,
    "trust": 8.05,
    "conversion": 3.5,
    "prestige": 1.5,
    "overall": 6.67,
    "fhrsid": 503479,
    "name": "The Pavillion",
    "postcode": "OX15 6HT",
    "category": "Other",
    "category_source": "unclassified",
    "lat": 52.106995,
    "lon": -1.459235,
    "google_rating": 4.5,
    "google_reviews": 3261,
    "fsa_rating": 5,
    "price_level": 2
  },
  "503541": {
    "experience": 8.83,
    "visibility": 6.76,
    "trust": 7.62,
    "conversion": 5.5,
    "prestige": 0.0,
    "overall": 6.73,
    "fhrsid": 503541,
    "name": "Costa",
    "postcode": "CV37 0UA",
    "category": "Food & Drink",
    "category_source": "google_types",
    "lat": 52.202756,
    "lon": -1.714463,
    "google_rating": 4.0,
    "google_reviews": 388,
    "fsa_rating": 5,
    "price_level": 1
  },
  "1835033": {
    "experience": 7.1,
    "visibility": 8.1,
    "trust": 7.15,
    "conversion": 5.5,
    "prestige": 0.0,
    "overall": 6.36,
    "fhrsid": 1835033,
    "name": "The Cottage Of Content",
    "postcode": "B50 4NP",
    "category": "Pub / Bar",
    "category_source": "google_types",
    "lat": 52.158998,
    "lon": -1.843073,
    "google_rating": 4.3,
    "google_reviews": 598,
    "fsa_rating": 4,
    "price_level": 2
  },
  "1474392": {
    "experience": 8.61,
    "visibility": 2.69,
    "trust": 8.66,
    "conversion": 4.5,
    "prestige": 1.5,
    "overall": 6.11,
    "fhrsid": 1474392,
    "name": "The Pavilion Coffee Shop And Community Space",
    "postcode": "CV37 8YE",
    "category": "Cafe / Coffee Shop",
    "category_source": "google_types",
    "lat": 52.1208772,
    "lon": -1.7589937,
    "google_rating": 4.7,
    "google_reviews": 20,
    "fsa_rating": 5,
    "price_level": null
  },
  "736236": {
    "experience": 8.49,
    "visibility": 4.83,
    "trust": 7.35,
    "conversion": 2.5,
    "prestige": 1.5,
    "overall": 5.88,
    "fhrsid": 736236,
    "name": "JNB Cafe",
    "postcode": "CV37 0ER",
    "category": "Cafe / Coffee Shop",
    "category_source": "name_match",
    "lat": 52.225124,
    "lon": -1.742061,
    "google_rating": 4.6,
    "google_reviews": 194,
    "fsa_rating": 5,
    "price_level": null
  },
  "503715": {
    "experience": 6.98,
    "visibility": 8.42,
    "trust": 5.53,
    "conversion": 5.5,
    "prestige": 0.0,
    "overall": 5.99,
    "fhrsid": 503715,
    "name": "Cafe Living",
    "postcode": "CV37 0HZ",
    "category": "Cafe / Coffee Shop",
    "category_source": "google_types",
    "lat": 52.201275,
    "lon": -1.711838,
    "google_rating": 4.2,
    "google_reviews": 1546,
    "fsa_rating": 3,
    "price_level": 1
  },
  "1622072": {
    "experience": 8.26,
    "visibility": 7.41,
    "trust": 5.8,
    "conversion": 4.5,
    "prestige": 0.0,
    "overall": 6.08,
    "fhrsid": 1622072,
    "name": "Hudson's",
    "postcode": "CV37 9ST",
    "category": "Cafe / Coffee Shop",
    "category_source": "google_types",
    "lat": 52.1823926,
    "lon": -1.7625233,
    "google_rating": 4.4,
    "google_reviews": 132,
    "fsa_rating": 3,
    "price_level": null
  },
  "1266894": {
    "experience": 8.83,
    "visibility": 8.33,
    "trust": 8.95,
    "conversion": 7.0,
    "prestige": 0.0,
    "overall": 7.6,
    "fhrsid": 1266894,
    "name": "Barnabys",
    "postcode": "CV37 6BA",
    "category": "British Restaurant",
    "category_source": "google_types",
    "lat": 52.190694,
    "lon": -1.704797,
    "google_rating": 4.0,
    "google_reviews": 1179,
    "fsa_rating": 5,
    "price_level": 2
  },
  "1552322": {
    "experience": 8.72,
    "visibility": 7.1,
    "trust": 8.66,
    "conversion": 3.0,
    "prestige": 0.0,
    "overall": 6.65,
    "fhrsid": 1552322,
    "name": "Costa Coffee",
    "postcode": "CV37 6PT",
    "category": "Cafe / Coffee Shop",
    "category_source": "google_types",
    "lat": 52.1931087492644,
    "lon": -1.70689819041103,
    "google_rating": 3.9,
    "google_reviews": 95,
    "fsa_rating": 5,
    "price_level": 2
  },
  "1421992": {
    "experience": 9.53,
    "visibility": 8.05,
    "trust": 9.48,
    "conversion": 7.0,
    "prestige": 1.5,
    "overall": 8.04,
    "fhrsid": 1421992,
    "name": "Deli Cafe",
    "postcode": "CV37 6QB",
    "category": "British Restaurant",
    "category_source": "google_types",
    "lat": 52.193364,
    "lon": -1.708422,
    "google_rating": 4.6,
    "google_reviews": 510,
    "fsa_rating": 5,
    "price_level": 1
  },
  "503105": {
    "experience": 9.42,
    "visibility": 7.89,
    "trust": 8.98,
    "conversion": 5.5,
    "prestige": 1.5,
    "overall": 7.62,
    "fhrsid": 503105,
    "name": "Avon Spice",
    "postcode": "CV37 6LF",
    "category": "Indian Restaurant",
    "category_source": "google_types",
    "lat": 52.193353,
    "lon": -1.711012,
    "google_rating": 4.5,
    "google_reviews": 312,
    "fsa_rating": 5,
    "price_level": 1
  },
  "1789006": {
    "experience": 9.53,
    "visibility": 7.72,
    "trust": 8.42,
    "conversion": 7.0,
    "prestige": 1.5,
    "overall": 7.71,
    "fhrsid": 1789006,
    "name": "The Pickled Crab Deli",
    "postcode": "CV47 0HF",
    "category": "Takeaway",
    "category_source": "google_types",
    "lat": 52.252495,
    "lon": -1.388692,
    "google_rating": 4.6,
    "google_reviews": 188,
    "fsa_rating": 5,
    "price_level": 2
  },
  "503148": {
    "experience": 7.45,
    "visibility": 7.9,
    "trust": 5.53,
    "conversion": 4.5,
    "prestige": 1.5,
    "overall": 6.02,
    "fhrsid": 503148,
    "name": "Nuthurst Grange Country House",
    "postcode": "B94 5NL",
    "category": "Hotel / Accommodation",
    "category_source": "google_types",
    "lat": 52.342843,
    "lon": -1.777355,
    "google_rating": 4.6,
    "google_reviews": 590,
    "fsa_rating": 3,
    "price_level": null
  },
  "1421981": {
    "experience": 8.26,
    "visibility": 6.94,
    "trust": 7.3,
    "conversion": 5.5,
    "prestige": 0.0,
    "overall": 6.52,
    "fhrsid": 1421981,
    "name": "Peppers",
    "postcode": "B80 7HN",
    "category": "Indian Restaurant",
    "category_source": "google_types",
    "lat": 52.273198,
    "lon": -1.896545,
    "google_rating": 4.4,
    "google_reviews": 148,
    "fsa_rating": 5,
    "price_level": 2
  },
  "503286": {
    "experience": 8.61,
    "visibility": 7.59,
    "trust": 7.67,
    "conversion": 5.5,
    "prestige": 1.5,
    "overall": 6.99,
    "fhrsid": 503286,
    "name": "George's Cafe",
    "postcode": "B50 4JF",
    "category": "Cafe / Coffee Shop",
    "category_source": "google_types",
    "lat": 52.173445,
    "lon": -1.849763,
    "google_rating": 4.7,
    "google_reviews": 124,
    "fsa_rating": 5,
    "price_level": 1
  },
  "1552333": {
    "experience": 8.48,
    "visibility": 4.57,
    "trust": 8.8,
    "conversion": 5.5,
    "prestige": 0.0,
    "overall": 6.48,
    "fhrsid": 1552333,
    "name": "Costa Coffee",
    "postcode": "CV37 8LU",
    "category": "Cafe / Coffee Shop",
    "category_source": "google_types",
    "lat": 52.1795777,
    "lon": -1.6985872,
    "google_rating": 3.7,
    "google_reviews": 35,
    "fsa_rating": 5,
    "price_level": 2
  },
  "1485802": {
    "experience": 9.53,
    "visibility": 4.68,
    "trust": 7.94,
    "conversion": 2.5,
    "prestige": 1.5,
    "overall": 6.3,
    "fhrsid": 1485802,
    "name": "Kitty's Kitchen Catering Ltd",
    "postcode": "CV37 7AY",
    "category": "Catering",
    "category_source": "name_match",
    "lat": 52.2006397,
    "lon": -1.672869,
    "google_rating": 4.6,
    "google_reviews": 121,
    "fsa_rating": 5,
    "price_level": null
  },
  "1495078": {
    "experience": 8.14,
    "visibility": 6.78,
    "trust": 7.07,
    "conversion": 4.5,
    "prestige": 0.0,
    "overall": 6.24,
    "fhrsid": 1495078,
    "name": "Four Seasons Pho Limited",
    "postcode": "CV37 6LF",
    "category": "Asian Restaurant",
    "category_source": "google_types",
    "lat": 52.193353,
    "lon": -1.711012,
    "google_rating": 4.3,
    "google_reviews": 167,
    "fsa_rating": 5,
    "price_level": null
  },
  "503240": {
    "experience": 9.65,
    "visibility": 8.32,
    "trust": 7.43,
    "conversion": 5.5,
    "prestige": 1.5,
    "overall": 7.39,
    "fhrsid": 503240,
    "name": "Henley Ice Cream Limited",
    "postcode": "B95 5BS",
    "category": "Cafe / Coffee Shop",
    "category_source": "google_types",
    "lat": 52.291245,
    "lon": -1.780384,
    "google_rating": 4.7,
    "google_reviews": 1160,
    "fsa_rating": 5,
    "price_level": 1
  },
  "1912631": {
    "experience": 8.4,
    "visibility": 6.89,
    "trust": 0.0,
    "conversion": 5.5,
    "prestige": 0.0,
    "overall": 4.72,
    "fhrsid": 1912631,
    "name": "Shipston Bengal Cuisine",
    "postcode": "CV36 4PP",
    "category": "Indian Restaurant",
    "category_source": "google_types",
    "lat": 52.062835,
    "lon": -1.623911,
    "google_rating": 4.2,
    "google_reviews": 127,
    "fsa_rating": null,
    "price_level": 2
  },
  "1253300": {
    "experience": 9.07,
    "visibility": 7.76,
    "trust": 6.37,
    "conversion": 3.0,
    "prestige": 0.0,
    "overall": 6.32,
    "fhrsid": 1253300,
    "name": "The Keys",
    "postcode": "CV37 6LW",
    "category": "Pub / Bar",
    "category_source": "google_types",
    "lat": 52.1915550231934,
    "lon": -1.70879101753235,
    "google_rating": 4.2,
    "google_reviews": 387,
    "fsa_rating": 4,
    "price_level": 2
  },
  "503270": {
    "experience": 10,
    "visibility": 1.35,
    "trust": 8.13,
    "conversion": null,
    "prestige": 0.0,
    "overall": 6.24,
    "fhrsid": 503270,
    "name": "Kings Court Hotel",
    "postcode": "B49 5QQ",
    "category": "Hotel / Accommodation",
    "category_source": "name_match",
    "lat": 52.232772,
    "lon": -1.880693,
    "google_rating": null,
    "google_reviews": null,
    "fsa_rating": 5,
    "price_level": null
  },
  "1799220": {
    "experience": 7.44,
    "visibility": 7.57,
    "trust": 7.69,
    "conversion": 4.5,
    "prestige": 0.0,
    "overall": 6.34,
    "fhrsid": 1799220,
    "name": "Burger King",
    "postcode": "CV37 0HZ",
    "category": "Restaurant (General)",
    "category_source": "google_types",
    "lat": 52.2013317,
    "lon": -1.7107622,
    "google_rating": 3.7,
    "google_reviews": 218,
    "fsa_rating": 5,
    "price_level": null
  },
  "1344517": {
    "experience": 9.2,
    "visibility": 7.84,
    "trust": 9.52,
    "conversion": 5.5,
    "prestige": 1.5,
    "overall": 7.68,
    "fhrsid": 1344517,
    "name": "The Fox Inn",
    "postcode": "CV35 9JS",
    "category": "Pub / Bar",
    "category_source": "google_types",
    "lat": 52.172642,
    "lon": -1.62578,
    "google_rating": 4.6,
    "google_reviews": 271,
    "fsa_rating": 5,
    "price_level": 2
  },
  "503401": {
    "experience": 8.61,
    "visibility": 8.06,
    "trust": 6.48,
    "conversion": 5.5,
    "prestige": 1.5,
    "overall": 6.79,
    "fhrsid": 503401,
    "name": "Shukurs",
    "postcode": "CV35 0HP",
    "category": "Indian Restaurant",
    "category_source": "google_types",
    "lat": 52.15614,
    "lon": -1.511451,
    "google_rating": 4.7,
    "google_reviews": 526,
    "fsa_rating": 4,
    "price_level": 2
  },
  "503854": {
    "experience": 9.3,
    "visibility": 5.57,
    "trust": 9.28,
    "conversion": 2.5,
    "prestige": 0.0,
    "overall": 6.6,
    "fhrsid": 503854,
    "name": "The Lime Tree Restaurant",
    "postcode": "CV37 8LW",
    "category": "Other",
    "category_source": "unclassified",
    "lat": 52.163697,
    "lon": -1.723689,
    "google_rating": 4.4,
    "google_reviews": 1817,
    "fsa_rating": 5,
    "price_level": null
  },
  "979161": {
    "experience": 7.57,
    "visibility": 6.64,
    "trust": 2.87,
    "conversion": 3.0,
    "prestige": 1.5,
    "overall": 4.92,
    "fhrsid": 979161,
    "name": "Karen's Korner",
    "postcode": "B80 7PD",
    "category": "Cafe / Coffee Shop",
    "category_source": "google_types",
    "lat": 52.260129,
    "lon": -1.889821,
    "google_rating": 4.7,
    "google_reviews": 108,
    "fsa_rating": 1,
    "price_level": 1
  },
  "676561": {
    "experience": 7.1,
    "visibility": 8.01,
    "trust": 6.96,
    "conversion": 2.5,
    "prestige": 0.0,
    "overall": 5.85,
    "fhrsid": 676561,
    "name": "The Embankment",
    "postcode": "CV37 7LS",
    "category": "Hotel / Accommodation",
    "category_source": "google_types",
    "lat": 52.1905937194824,
    "lon": -1.70039498806,
    "google_rating": 4.3,
    "google_reviews": 820,
    "fsa_rating": 4,
    "price_level": null
  },
  "1747702": {
    "experience": 9.88,
    "visibility": 8.06,
    "trust": 7.68,
    "conversion": 4.5,
    "prestige": 1.5,
    "overall": 7.32,
    "fhrsid": 1747702,
    "name": "Beleza Rodizio",
    "postcode": "CV37 6EX",
    "category": "American / Grill",
    "category_source": "google_types",
    "lat": 52.1920005,
    "lon": -1.7083492,
    "google_rating": 4.9,
    "google_reviews": 950,
    "fsa_rating": 5,
    "price_level": null
  },
  "1397584": {
    "experience": 8.38,
    "visibility": 7.9,
    "trust": 9.53,
    "conversion": 5.5,
    "prestige": 3.0,
    "overall": 7.6,
    "fhrsid": 1397584,
    "name": "The Bluebell",
    "postcode": "B95 5AT",
    "category": "Restaurant (General)",
    "category_source": "google_types",
    "lat": 52.294209,
    "lon": -1.778947,
    "google_rating": 4.5,
    "google_reviews": 323,
    "fsa_rating": 5,
    "price_level": 3
  },
  "1838726": {
    "experience": 8.03,
    "visibility": 7.95,
    "trust": 5.35,
    "conversion": 5.5,
    "prestige": 0.0,
    "overall": 6.16,
    "fhrsid": 1838726,
    "name": "The Cowshed Cafe",
    "postcode": "B95 6BY",
    "category": "Cafe / Coffee Shop",
    "category_source": "google_types",
    "lat": 52.2661933898926,
    "lon": -1.77225804328918,
    "google_rating": 4.2,
    "google_reviews": 377,
    "fsa_rating": 3,
    "price_level": 2
  },
  "503555": {
    "experience": 8.49,
    "visibility": 6.18,
    "trust": 6.63,
    "conversion": 2.5,
    "prestige": 1.5,
    "overall": 5.97,
    "fhrsid": 503555,
    "name": "Dog Lane Fishery Caravanning And Camping Site",
    "postcode": "CV47 8LT",
    "category": "Hotel / Accommodation",
    "category_source": "google_types",
    "lat": 52.244522,
    "lon": -1.318382,
    "google_rating": 4.6,
    "google_reviews": 303,
    "fsa_rating": 5,
    "price_level": null
  },
  "503089": {
    "experience": 9.53,
    "visibility": 8.28,
    "trust": 5.91,
    "conversion": 5.5,
    "prestige": 1.5,
    "overall": 6.97,
    "fhrsid": 503089,
    "name": "Touchdown Cafe",
    "postcode": "CV35 9EU",
    "category": "Cafe / Coffee Shop",
    "category_source": "google_types",
    "lat": 52.196738,
    "lon": -1.617867,
    "google_rating": 4.6,
    "google_reviews": 1034,
    "fsa_rating": 4,
    "price_level": 1
  },
  "1765854": {
    "experience": null,
    "visibility": 0.4,
    "trust": 6.14,
    "conversion": null,
    "prestige": 0.0,
    "overall": 2.94,
    "fhrsid": 1765854,
    "name": "The Roebuck Inn Alcester",
    "postcode": "B49 5QA",
    "category": "Pub / Bar",
    "category_source": "name_match",
    "lat": 52.223015,
    "lon": -1.878567,
    "google_rating": null,
    "google_reviews": null,
    "fsa_rating": 4,
    "price_level": null
  },
  "1808716": {
    "experience": 8.49,
    "visibility": 3.98,
    "trust": 8.79,
    "conversion": 4.5,
    "prestige": 1.5,
    "overall": 6.37,
    "fhrsid": 1808716,
    "name": "Fast Flavour",
    "postcode": "CV37 6AB",
    "category": "Restaurant (General)",
    "category_source": "google_types",
    "lat": 52.192376,
    "lon": -1.705049,
    "google_rating": 4.6,
    "google_reviews": 27,
    "fsa_rating": 5,
    "price_level": null
  },
  "1804017": {
    "experience": 8.84,
    "visibility": 4.13,
    "trust": 8.38,
    "conversion": 4.5,
    "prestige": 1.5,
    "overall": 6.4,
    "fhrsid": 1804017,
    "name": "Cafe 86B",
    "postcode": "B95 5BY",
    "category": "Cafe / Coffee Shop",
    "category_source": "google_types",
    "lat": 52.2930036,
    "lon": -1.7801478,
    "google_rating": 4.9,
    "google_reviews": 42,
    "fsa_rating": 5,
    "price_level": null
  },
  "1577024": {
    "experience": 9.88,
    "visibility": 6.02,
    "trust": 8.77,
    "conversion": 2.0,
    "prestige": 1.5,
    "overall": 6.81,
    "fhrsid": 1577024,
    "name": "Puddleduck Cafe Ltd",
    "postcode": "CV47 1AJ",
    "category": "Cafe / Coffee Shop",
    "category_source": "google_types",
    "lat": 52.2304055,
    "lon": -1.3343122,
    "google_rating": 4.9,
    "google_reviews": 75,
    "fsa_rating": 5,
    "price_level": null
  },
  "1796548": {
    "experience": 9.42,
    "visibility": 7.96,
    "trust": 8.05,
    "conversion": 7.0,
    "prestige": 1.5,
    "overall": 7.63,
    "fhrsid": 1796548,
    "name": "The Kingfisher FishBar",
    "postcode": "CV37 6LW",
    "category": "Fast Food / Quick Service",
    "category_source": "google_types",
    "lat": 52.191531,
    "lon": -1.708756,
    "google_rating": 4.5,
    "google_reviews": 386,
    "fsa_rating": 5,
    "price_level": 1
  },
  "1854461": {
    "experience": 9.65,
    "visibility": 7.65,
    "trust": 9.26,
    "conversion": 4.5,
    "prestige": 1.5,
    "overall": 7.57,
    "fhrsid": 1854461,
    "name": "The Red Lion",
    "postcode": "CV37 6YW",
    "category": "Pub / Bar",
    "category_source": "google_types",
    "lat": 52.1934292,
    "lon": -1.7034832,
    "google_rating": 4.7,
    "google_reviews": 277,
    "fsa_rating": 5,
    "price_level": null
  },
  "503926": {
    "experience": 8.96,
    "visibility": 3.97,
    "trust": 8.52,
    "conversion": 4.5,
    "prestige": 1.5,
    "overall": 6.44,
    "fhrsid": 503926,
    "name": "Harbury Library Cafe",
    "postcode": "CV33 9HW",
    "category": "Cafe / Coffee Shop",
    "category_source": "google_types",
    "lat": 52.236711,
    "lon": -1.455391,
    "google_rating": 5.0,
    "google_reviews": 26,
    "fsa_rating": 5,
    "price_level": null
  },
  "1388307": {
    "experience": 10,
    "visibility": 4.14,
    "trust": 7.93,
    "conversion": 3.5,
    "prestige": 1.5,
    "overall": 6.49,
    "fhrsid": 1388307,
    "name": "Chrissie's Kitchen",
    "postcode": "CV35",
    "category": "Takeaway",
    "category_source": "google_types",
    "lat": null,
    "lon": null,
    "google_rating": 5.0,
    "google_reviews": 79,
    "fsa_rating": 5,
    "price_level": null
  },
  "503772": {
    "experience": 8.6,
    "visibility": 8.42,
    "trust": 7.62,
    "conversion": 5.5,
    "prestige": 0.0,
    "overall": 6.99,
    "fhrsid": 503772,
    "name": "McDonald's",
    "postcode": "CV37 6AB",
    "category": "American / Grill",
    "category_source": "google_types",
    "lat": 52.192376,
    "lon": -1.705049,
    "google_rating": 3.8,
    "google_reviews": 1562,
    "fsa_rating": 5,
    "price_level": 1
  },
  "503478": {
    "experience": 8.6,
    "visibility": 8.07,
    "trust": 9.91,
    "conversion": 5.5,
    "prestige": 0.0,
    "overall": 7.5,
    "fhrsid": 503478,
    "name": "Starbucks",
    "postcode": "CV37 6AU",
    "category": "Fast Food / Quick Service",
    "category_source": "google_types",
    "lat": 52.192002,
    "lon": -1.706485,
    "google_rating": 3.8,
    "google_reviews": 548,
    "fsa_rating": 5,
    "price_level": 2
  },
  "1800191": {
    "experience": 9.65,
    "visibility": 6.3,
    "trust": 8.2,
    "conversion": 4.5,
    "prestige": 1.5,
    "overall": 7.03,
    "fhrsid": 1800191,
    "name": "Chapter 23",
    "postcode": "B49 5AF",
    "category": "Cafe / Coffee Shop",
    "category_source": "google_types",
    "lat": 52.214178,
    "lon": -1.870629,
    "google_rating": 4.7,
    "google_reviews": 96,
    "fsa_rating": 5,
    "price_level": null
  },
  "1774608": {
    "experience": 8.61,
    "visibility": 6.82,
    "trust": 7.89,
    "conversion": 4.5,
    "prestige": 1.5,
    "overall": 6.74,
    "fhrsid": 1774608,
    "name": "NO4 Bar And Restaurant",
    "postcode": "CV37 6YY",
    "category": "Restaurant (General)",
    "category_source": "google_types",
    "lat": 52.193573,
    "lon": -1.701765,
    "google_rating": 4.7,
    "google_reviews": 184,
    "fsa_rating": 5,
    "price_level": null
  },
  "1747700": {
    "experience": 9.65,
    "visibility": 6.15,
    "trust": 7.59,
    "conversion": 6.0,
    "prestige": 1.5,
    "overall": 7.07,
    "fhrsid": 1747700,
    "name": "The Still House Café",
    "postcode": "CV36 5EX",
    "category": "Italian Restaurant",
    "category_source": "google_types",
    "lat": 52.0258118,
    "lon": -1.5659405,
    "google_rating": 4.7,
    "google_reviews": 61,
    "fsa_rating": 5,
    "price_level": null
  },
  "1556368": {
    "experience": 9.3,
    "visibility": 8.16,
    "trust": 7.89,
    "conversion": 5.5,
    "prestige": 0.0,
    "overall": 7.22,
    "fhrsid": 1556368,
    "name": "Prospero Lounge",
    "postcode": "CV37 6AD",
    "category": "British Restaurant",
    "category_source": "google_types",
    "lat": 52.1928473,
    "lon": -1.7044672,
    "google_rating": 4.4,
    "google_reviews": 711,
    "fsa_rating": 5,
    "price_level": 2
  },
  "565220": {
    "experience": 7.33,
    "visibility": 8.43,
    "trust": 6.37,
    "conversion": 5.5,
    "prestige": 1.5,
    "overall": 6.45,
    "fhrsid": 565220,
    "name": "Four Teas",
    "postcode": "CV37 6EF",
    "category": "Cafe / Coffee Shop",
    "category_source": "google_types",
    "lat": 52.191343,
    "lon": -1.705451,
    "google_rating": 4.5,
    "google_reviews": 1602,
    "fsa_rating": 3,
    "price_level": 2
  },
  "502962": {
    "experience": 7.33,
    "visibility": 6.44,
    "trust": 5.91,
    "conversion": 7.0,
    "prestige": 1.5,
    "overall": 6.16,
    "fhrsid": 502962,
    "name": "Curry Republic",
    "postcode": "B95 5AA",
    "category": "Indian Restaurant",
    "category_source": "google_types",
    "lat": 52.295862,
    "lon": -1.778206,
    "google_rating": 4.5,
    "google_reviews": 126,
    "fsa_rating": 3,
    "price_level": 2
  },
  "1388303": {
    "experience": 8.72,
    "visibility": 6.66,
    "trust": 7.38,
    "conversion": 4.5,
    "prestige": 1.5,
    "overall": 6.62,
    "fhrsid": 1388303,
    "name": "Lily's",
    "postcode": "CV37 6LU",
    "category": "Restaurant (General)",
    "category_source": "google_types",
    "lat": 52.1928706,
    "lon": -1.7102751,
    "google_rating": 4.8,
    "google_reviews": 116,
    "fsa_rating": 5,
    "price_level": null
  },
  "1827674": {
    "experience": 9.65,
    "visibility": 3.93,
    "trust": 8.33,
    "conversion": 6.0,
    "prestige": 1.5,
    "overall": 6.81,
    "fhrsid": 1827674,
    "name": "Pickled & Tipsy's Cafe",
    "postcode": "CV47 1PH",
    "category": "Takeaway",
    "category_source": "google_types",
    "lat": 52.2529722,
    "lon": -1.3874593,
    "google_rating": 4.7,
    "google_reviews": 23,
    "fsa_rating": 5,
    "price_level": null
  },
  "502877": {
    "experience": 8.14,
    "visibility": 7.96,
    "trust": 7.33,
    "conversion": null,
    "prestige": 0.0,
    "overall": 6.9,
    "fhrsid": 502877,
    "name": "DoubleTree By Hilton",
    "postcode": "CV37 6QQ",
    "category": "Hotel / Accommodation",
    "category_source": "google_types",
    "lat": null,
    "lon": null,
    "google_rating": 4.3,
    "google_reviews": 1314,
    "fsa_rating": 5,
    "price_level": null
  },
  "503584": {
    "experience": 9.53,
    "visibility": 7.92,
    "trust": 8.54,
    "conversion": 7.0,
    "prestige": 1.5,
    "overall": 7.78,
    "fhrsid": 503584,
    "name": "Cardamom",
    "postcode": "B49 5DP",
    "category": "Indian Restaurant",
    "category_source": "google_types",
    "lat": 52.213919,
    "lon": -1.871523,
    "google_rating": 4.6,
    "google_reviews": 344,
    "fsa_rating": 5,
    "price_level": 2
  },
  "1802818": {
    "experience": 9.77,
    "visibility": 5.35,
    "trust": 8.83,
    "conversion": 2.0,
    "prestige": 6.5,
    "overall": 7.16,
    "fhrsid": 1802818,
    "name": "11/17 Salt Beef Bar",
    "postcode": "CV37 6GJ",
    "category": "Restaurant (General)",
    "category_source": "google_types",
    "lat": 52.1918061,
    "lon": -1.7051616,
    "google_rating": 4.8,
    "google_reviews": 83,
    "fsa_rating": 5,
    "price_level": null
  },
  "1884822": {
    "experience": 9.3,
    "visibility": 4.11,
    "trust": 7.02,
    "conversion": 4.5,
    "prestige": 0.0,
    "overall": 6.04,
    "fhrsid": 1884822,
    "name": "WINGERS STRATFORD",
    "postcode": "CV37 0BF",
    "category": "American / Grill",
    "category_source": "google_types",
    "lat": 52.2017958,
    "lon": -1.716788,
    "google_rating": 4.4,
    "google_reviews": 40,
    "fsa_rating": 4,
    "price_level": null
  },
  "1796553": {
    "experience": 8.96,
    "visibility": 6.28,
    "trust": 7.81,
    "conversion": 4.5,
    "prestige": 1.5,
    "overall": 6.72,
    "fhrsid": 1796553,
    "name": "Mr Odie's",
    "postcode": "CV37 6QT",
    "category": "Cafe / Coffee Shop",
    "category_source": "google_types",
    "lat": 52.1931927,
    "lon": -1.7059718,
    "google_rating": 5.0,
    "google_reviews": 89,
    "fsa_rating": 5,
    "price_level": null
  },
  "1381141": {
    "experience": 9.53,
    "visibility": 8.15,
    "trust": 8.18,
    "conversion": 5.5,
    "prestige": 1.5,
    "overall": 7.51,
    "fhrsid": 1381141,
    "name": "The Bull's Head",
    "postcode": "B95 6BD",
    "category": "Pub / Bar",
    "category_source": "google_types",
    "lat": 52.268642,
    "lon": -1.779338,
    "google_rating": 4.6,
    "google_reviews": 691,
    "fsa_rating": 5,
    "price_level": 2
  },
  "1589295": {
    "experience": 7.57,
    "visibility": 7.37,
    "trust": 6.98,
    "conversion": 4.5,
    "prestige": 1.5,
    "overall": 6.32,
    "fhrsid": 1589295,
    "name": "The Tempest",
    "postcode": "CV37 6EX",
    "category": "Italian Restaurant",
    "category_source": "google_types",
    "lat": 52.1924049,
    "lon": -1.7078161,
    "google_rating": 4.7,
    "google_reviews": 120,
    "fsa_rating": 4,
    "price_level": null
  },
  "502864": {
    "experience": 9.18,
    "visibility": 7.91,
    "trust": 8.05,
    "conversion": 7.0,
    "prestige": 0.0,
    "overall": 7.4,
    "fhrsid": 502864,
    "name": "Hussains",
    "postcode": "CV37 6EP",
    "category": "Indian Restaurant",
    "category_source": "google_types",
    "lat": 52.191142,
    "lon": -1.707691,
    "google_rating": 4.3,
    "google_reviews": 331,
    "fsa_rating": 5,
    "price_level": 2
  },
  "1513917": {
    "experience": 8.14,
    "visibility": 5.51,
    "trust": 6.24,
    "conversion": 6.0,
    "prestige": 0.0,
    "overall": 6.0,
    "fhrsid": 1513917,
    "name": "The Water Margin @ The Hollybush",
    "postcode": "CV47 7RW",
    "category": "Takeaway",
    "category_source": "google_types",
    "lat": 52.213152,
    "lon": -1.284497,
    "google_rating": 4.3,
    "google_reviews": 73,
    "fsa_rating": 4,
    "price_level": null
  },
  "1672980": {
    "experience": 8.37,
    "visibility": 5.94,
    "trust": 9.24,
    "conversion": 5.5,
    "prestige": 0.0,
    "overall": 6.83,
    "fhrsid": 1672980,
    "name": "Greggs PLC",
    "postcode": "B49 6EH",
    "category": "Bakery / Desserts",
    "category_source": "google_types",
    "lat": 52.2250966,
    "lon": -1.8621734,
    "google_rating": 3.6,
    "google_reviews": 58,
    "fsa_rating": 5,
    "price_level": 1
  },
  "1826838": {
    "experience": 7.68,
    "visibility": 3.69,
    "trust": 5.41,
    "conversion": 4.5,
    "prestige": 1.5,
    "overall": 5.22,
    "fhrsid": 1826838,
    "name": "Mouchak",
    "postcode": "B50 4BG",
    "category": "Indian Restaurant",
    "category_source": "google_types",
    "lat": 52.164253,
    "lon": -1.8580622,
    "google_rating": 4.8,
    "google_reviews": 11,
    "fsa_rating": 3,
    "price_level": null
  },
  "559158": {
    "experience": 9.18,
    "visibility": 7.99,
    "trust": 9.53,
    "conversion": 5.5,
    "prestige": 0.0,
    "overall": 7.56,
    "fhrsid": 559158,
    "name": "No 37 Cafe",
    "postcode": "CV37 6EE",
    "category": "Cafe / Coffee Shop",
    "category_source": "google_types",
    "lat": 52.191657,
    "lon": -1.705288,
    "google_rating": 4.3,
    "google_reviews": 430,
    "fsa_rating": 5,
    "price_level": 2
  },
  "565221": {
    "experience": 9.18,
    "visibility": 7.86,
    "trust": 9.22,
    "conversion": 5.5,
    "prestige": 0.0,
    "overall": 7.46,
    "fhrsid": 565221,
    "name": "Costa",
    "postcode": "B95 5DA",
    "category": "Cafe / Coffee Shop",
    "category_source": "google_types",
    "lat": 52.293582,
    "lon": -1.780094,
    "google_rating": 4.3,
    "google_reviews": 283,
    "fsa_rating": 5,
    "price_level": 2
  },
  "1743693": {
    "experience": 9.18,
    "visibility": 7.8,
    "trust": 8.11,
    "conversion": 7.0,
    "prestige": 0.0,
    "overall": 7.39,
    "fhrsid": 1743693,
    "name": "The Food Of Love",
    "postcode": "CV37 6QW",
    "category": "Fast Food / Quick Service",
    "category_source": "google_types",
    "lat": 52.194022,
    "lon": -1.708769,
    "google_rating": 4.3,
    "google_reviews": 241,
    "fsa_rating": 5,
    "price_level": 1
  },
  "503218": {
    "experience": 7.79,
    "visibility": 7.1,
    "trust": 7.88,
    "conversion": 2.5,
    "prestige": 0.0,
    "overall": 6.1,
    "fhrsid": 503218,
    "name": "Burger King - Southbound",
    "postcode": "CV35 0AA",
    "category": "Fast Food / Quick Service",
    "category_source": "name_match",
    "lat": 52.216487,
    "lon": -1.505433,
    "google_rating": 4.0,
    "google_reviews": 10079,
    "fsa_rating": 5,
    "price_level": null
  },
  "1623426": {
    "experience": 9.77,
    "visibility": 8.04,
    "trust": 8.47,
    "conversion": 4.5,
    "prestige": 1.5,
    "overall": 7.48,
    "fhrsid": 1623426,
    "name": "Red Hot Mamma Pizzeria",
    "postcode": "CV37 6AU",
    "category": "Restaurant (General)",
    "category_source": "google_types",
    "lat": 52.1916929,
    "lon": -1.7066253,
    "google_rating": 4.8,
    "google_reviews": 912,
    "fsa_rating": 5,
    "price_level": null
  },
  "1662496": {
    "experience": 8.49,
    "visibility": 7.89,
    "trust": 8.33,
    "conversion": 5.5,
    "prestige": 1.5,
    "overall": 7.18,
    "fhrsid": 1662496,
    "name": "Coffee Clouds",
    "postcode": "CV37 6GJ",
    "category": "Cafe / Coffee Shop",
    "category_source": "google_types",
    "lat": 52.191801,
    "lon": -1.705185,
    "google_rating": 4.6,
    "google_reviews": 311,
    "fsa_rating": 5,
    "price_level": 2
  },
  "1754519": {
    "experience": 10,
    "visibility": 0.6,
    "trust": 8.2,
    "conversion": 2.5,
    "prestige": 0.0,
    "overall": 5.54,
    "fhrsid": 1754519,
    "name": "Nanas Caff",
    "postcode": "CV37 9NQ",
    "category": "Cafe / Coffee Shop",
    "category_source": "name_match",
    "lat": null,
    "lon": null,
    "google_rating": null,
    "google_reviews": null,
    "fsa_rating": 5,
    "price_level": null
  },
  "1735216": {
    "experience": 8.49,
    "visibility": 5.41,
    "trust": 8.55,
    "conversion": null,
    "prestige": 1.5,
    "overall": 6.96,
    "fhrsid": 1735216,
    "name": "The Stables",
    "postcode": "B94 5BQ",
    "category": "Hotel / Accommodation",
    "category_source": "google_types",
    "lat": 52.322934,
    "lon": -1.8181764,
    "google_rating": 4.6,
    "google_reviews": 98,
    "fsa_rating": 5,
    "price_level": null
  },
  "1699665": {
    "experience": 9.65,
    "visibility": 8.01,
    "trust": 9.42,
    "conversion": 5.5,
    "prestige": 1.5,
    "overall": 7.83,
    "fhrsid": 1699665,
    "name": "Nel's At The Pavilion",
    "postcode": "CV35 0AD",
    "category": "Cafe / Coffee Shop",
    "category_source": "google_types",
    "lat": 52.20218467,
    "lon": -1.50230111,
    "google_rating": 4.7,
    "google_reviews": 453,
    "fsa_rating": 5,
    "price_level": 2
  },
  "1467814": {
    "experience": 9.3,
    "visibility": 4.97,
    "trust": 8.06,
    "conversion": 2.5,
    "prestige": 0.0,
    "overall": 6.17,
    "fhrsid": 1467814,
    "name": "Stratford Adventure Golf",
    "postcode": "CV37 7LS",
    "category": "Other",
    "category_source": "unclassified",
    "lat": 52.190593,
    "lon": -1.700395,
    "google_rating": 4.4,
    "google_reviews": 292,
    "fsa_rating": 5,
    "price_level": null
  },
  "503282": {
    "experience": 9.42,
    "visibility": 8.5,
    "trust": 9.72,
    "conversion": 5.5,
    "prestige": 1.5,
    "overall": 7.93,
    "fhrsid": 503282,
    "name": "Arrow Mill",
    "postcode": "B49 5NL",
    "category": "Pub / Bar",
    "category_source": "google_types",
    "lat": 52.2025451660156,
    "lon": -1.88109600543976,
    "google_rating": 4.5,
    "google_reviews": 1988,
    "fsa_rating": 5,
    "price_level": 2
  },
  "1774610": {
    "experience": 10,
    "visibility": 0,
    "trust": 8.41,
    "conversion": null,
    "prestige": 0.0,
    "overall": 6.0,
    "fhrsid": 1774610,
    "name": "Digby's Events",
    "postcode": "CV47",
    "category": "Other",
    "category_source": "unclassified",
    "lat": null,
    "lon": null,
    "google_rating": null,
    "google_reviews": null,
    "fsa_rating": 5,
    "price_level": null
  },
  "1266889": {
    "experience": 8.72,
    "visibility": 7.67,
    "trust": 5.88,
    "conversion": 4.5,
    "prestige": 1.5,
    "overall": 6.45,
    "fhrsid": 1266889,
    "name": "Turkish Stonebakers",
    "postcode": "CV35 9NE",
    "category": "Mediterranean Restaurant",
    "category_source": "google_types",
    "lat": 52.1954154968262,
    "lon": -1.58941304683685,
    "google_rating": 4.8,
    "google_reviews": 294,
    "fsa_rating": 4,
    "price_level": null
  },
  "503342": {
    "experience": 6.5,
    "visibility": 7.17,
    "trust": 8.84,
    "conversion": 5.5,
    "prestige": 0.0,
    "overall": 6.42,
    "fhrsid": 503342,
    "name": "Burger King - Northbound",
    "postcode": "CV35 0AA",
    "category": "American / Grill",
    "category_source": "google_types",
    "lat": 52.2164922,
    "lon": -1.5054086,
    "google_rating": 2.0,
    "google_reviews": 65,
    "fsa_rating": 5,
    "price_level": 2
  },
  "1908606": {
    "experience": 8.49,
    "visibility": 7.86,
    "trust": 8.7,
    "conversion": 7.0,
    "prestige": 1.5,
    "overall": 7.49,
    "fhrsid": 1908606,
    "name": "Bruno's Bakery",
    "postcode": "B80 7HJ",
    "category": "Fast Food / Quick Service",
    "category_source": "google_types",
    "lat": 52.2722409,
    "lon": -1.8974509,
    "google_rating": 4.6,
    "google_reviews": 290,
    "fsa_rating": 5,
    "price_level": 1
  },
  "1796547": {
    "experience": 9.88,
    "visibility": 7.33,
    "trust": 8.43,
    "conversion": 4.5,
    "prestige": 1.5,
    "overall": 7.36,
    "fhrsid": 1796547,
    "name": "Feel Good Crystals",
    "postcode": "CV36 5LE",
    "category": "Cafe / Coffee Shop",
    "category_source": "google_types",
    "lat": 51.9853749,
    "lon": -1.579597,
    "google_rating": 4.9,
    "google_reviews": 105,
    "fsa_rating": 5,
    "price_level": null
  },
  "1756585": {
    "experience": 9.42,
    "visibility": 4.39,
    "trust": 8.17,
    "conversion": 2.5,
    "prestige": 1.5,
    "overall": 6.27,
    "fhrsid": 1756585,
    "name": "Annie's Cafe & Event Catering",
    "postcode": "B49 5QF",
    "category": "Cafe / Coffee Shop",
    "category_source": "name_match",
    "lat": null,
    "lon": null,
    "google_rating": 4.5,
    "google_reviews": 94,
    "fsa_rating": 5,
    "price_level": null
  },
  "1690228": {
    "experience": 7.5,
    "visibility": 1.7,
    "trust": 8.13,
    "conversion": 2.5,
    "prestige": 0.0,
    "overall": 5.0,
    "fhrsid": 1690228,
    "name": "Compton Verney Cafe",
    "postcode": "CV35 9HZ",
    "category": "Restaurant (General)",
    "category_source": "google_types",
    "lat": 52.172898,
    "lon": -1.547269,
    "google_rating": null,
    "google_reviews": null,
    "fsa_rating": 5,
    "price_level": null
  },
  "1029137": {
    "experience": 8.38,
    "visibility": 7.91,
    "trust": 5.94,
    "conversion": 5.5,
    "prestige": 1.5,
    "overall": 6.56,
    "fhrsid": 1029137,
    "name": "The Buck And Bell",
    "postcode": "CV47 9PH",
    "category": "Pub / Bar",
    "category_source": "google_types",
    "lat": 52.28449,
    "lon": -1.393632,
    "google_rating": 4.5,
    "google_reviews": 331,
    "fsa_rating": 4,
    "price_level": 1
  },
  "503261": {
    "experience": 7.79,
    "visibility": 8.09,
    "trust": 7.22,
    "conversion": 5.5,
    "prestige": 0.0,
    "overall": 6.58,
    "fhrsid": 503261,
    "name": "Thespians Indian Restaurant",
    "postcode": "CV37 6EF",
    "category": "Indian Restaurant",
    "category_source": "google_types",
    "lat": 52.191343,
    "lon": -1.705451,
    "google_rating": 4.0,
    "google_reviews": 581,
    "fsa_rating": 4,
    "price_level": 2
  },
  "1871632": {
    "experience": 7.33,
    "visibility": 7.99,
    "trust": 6.29,
    "conversion": 5.5,
    "prestige": 1.5,
    "overall": 6.34,
    "fhrsid": 1871632,
    "name": "Sorrento Restaurant Taste Of Italy",
    "postcode": "CV37 6LW",
    "category": "Italian Restaurant",
    "category_source": "google_types",
    "lat": 52.191531,
    "lon": -1.708756,
    "google_rating": 4.5,
    "google_reviews": 426,
    "fsa_rating": 3,
    "price_level": 2
  },
  "503444": {
    "experience": 9.18,
    "visibility": 8.1,
    "trust": 7.79,
    "conversion": null,
    "prestige": 0.0,
    "overall": 7.44,
    "fhrsid": 503444,
    "name": "Crowne Plaza",
    "postcode": "CV37 6YR",
    "category": "Hotel / Accommodation",
    "category_source": "google_types",
    "lat": 52.193183,
    "lon": -1.700509,
    "google_rating": 4.3,
    "google_reviews": 3165,
    "fsa_rating": 5,
    "price_level": null
  },
  "1339998": {
    "experience": 9.65,
    "visibility": 7.83,
    "trust": 8.82,
    "conversion": 5.5,
    "prestige": 1.5,
    "overall": 7.64,
    "fhrsid": 1339998,
    "name": "Cotswold Cafe",
    "postcode": "",
    "category": "Cafe / Coffee Shop",
    "category_source": "google_types",
    "lat": 52.0581554,
    "lon": -1.6244354,
    "google_rating": 4.7,
    "google_reviews": 258,
    "fsa_rating": 5,
    "price_level": 1
  },
  "1056848": {
    "experience": 9.42,
    "visibility": 5.14,
    "trust": 9.07,
    "conversion": 2.5,
    "prestige": 1.5,
    "overall": 6.65,
    "fhrsid": 1056848,
    "name": "Espresso Barn",
    "postcode": "CV37 8RB",
    "category": "Cafe / Coffee Shop",
    "category_source": "name_match",
    "lat": 52.139902,
    "lon": -1.776058,
    "google_rating": 4.5,
    "google_reviews": 501,
    "fsa_rating": 5,
    "price_level": null
  },
  "502863": {
    "experience": 8.61,
    "visibility": 7.81,
    "trust": 8.41,
    "conversion": null,
    "prestige": 1.5,
    "overall": 7.53,
    "fhrsid": 502863,
    "name": "Hotel Indigo And The Woodsman",
    "postcode": "CV37 6HA",
    "category": "Hotel / Accommodation",
    "category_source": "google_types",
    "lat": 52.190788269043,
    "lon": -1.70834302902222,
    "google_rating": 4.7,
    "google_reviews": 826,
    "fsa_rating": 5,
    "price_level": null
  },
  "1019047": {
    "experience": 9.77,
    "visibility": 8.5,
    "trust": 7.59,
    "conversion": 5.5,
    "prestige": 1.5,
    "overall": 7.5,
    "fhrsid": 1019047,
    "name": "Miller And Carter",
    "postcode": "CV37 6EX",
    "category": "American / Grill",
    "category_source": "google_types",
    "lat": 52.298,
    "lon": -1.53713,
    "google_rating": 4.8,
    "google_reviews": 8975,
    "fsa_rating": 5,
    "price_level": 2
  },
  "504050": {
    "experience": 7.45,
    "visibility": 4.73,
    "trust": 5.72,
    "conversion": 2.5,
    "prestige": 1.5,
    "overall": 5.14,
    "fhrsid": 504050,
    "name": "Bishops Bowls Lake Cafe",
    "postcode": "CV47 2SR",
    "category": "Cafe / Coffee Shop",
    "category_source": "name_match",
    "lat": 52.228958,
    "lon": -1.429995,
    "google_rating": 4.6,
    "google_reviews": 144,
    "fsa_rating": 3,
    "price_level": null
  },
  "503102": {
    "experience": 9.42,
    "visibility": 4.94,
    "trust": 9.33,
    "conversion": null,
    "prestige": 1.5,
    "overall": 7.41,
    "fhrsid": 503102,
    "name": "Ashorne Hill Management College",
    "postcode": "CV33 9QW",
    "category": "Other",
    "category_source": "unclassified",
    "lat": 52.223936,
    "lon": -1.549356,
    "google_rating": 4.5,
    "google_reviews": 489,
    "fsa_rating": 5,
    "price_level": null
  },
  "1826833": {
    "experience": 8.61,
    "visibility": 7.37,
    "trust": 8.47,
    "conversion": 4.5,
    "prestige": 1.5,
    "overall": 7.0,
    "fhrsid": 1826833,
    "name": "Revs Automobilia",
    "postcode": "GL56 9RE",
    "category": "Cafe / Coffee Shop",
    "category_source": "google_types",
    "lat": 52.0495966,
    "lon": -1.6651129,
    "google_rating": 4.7,
    "google_reviews": 118,
    "fsa_rating": 5,
    "price_level": null
  },
  "1176874": {
    "experience": 7.45,
    "visibility": 8.04,
    "trust": 7.39,
    "conversion": 5.5,
    "prestige": 1.5,
    "overall": 6.67,
    "fhrsid": 1176874,
    "name": "The Garden Shed Cafe",
    "postcode": "CV35 9NZ",
    "category": "Cafe / Coffee Shop",
    "category_source": "google_types",
    "lat": 52.1963473,
    "lon": -1.5908236,
    "google_rating": 4.6,
    "google_reviews": 494,
    "fsa_rating": 4,
    "price_level": 2
  },
  "1838728": {
    "experience": 8.72,
    "visibility": 2.37,
    "trust": 7.94,
    "conversion": 2.5,
    "prestige": 1.5,
    "overall": 5.6,
    "fhrsid": 1838728,
    "name": "Elders Who Lunch (Hartley Locums)",
    "postcode": "CV47 8LS",
    "category": "Other",
    "category_source": "unclassified",
    "lat": 52.244038,
    "lon": -1.320074,
    "google_rating": 4.8,
    "google_reviews": 9,
    "fsa_rating": 5,
    "price_level": null
  },
  "503734": {
    "experience": 8.95,
    "visibility": 7.82,
    "trust": 9.34,
    "conversion": 2.0,
    "prestige": 0.0,
    "overall": 6.88,
    "fhrsid": 503734,
    "name": "Premier Inn",
    "postcode": "CV37 6UQ",
    "category": "Hotel / Accommodation",
    "category_source": "google_types",
    "lat": 52.194011,
    "lon": -1.704366,
    "google_rating": 4.1,
    "google_reviews": 860,
    "fsa_rating": 5,
    "price_level": null
  },
  "503711": {
    "experience": 8.49,
    "visibility": 7.04,
    "trust": 7.69,
    "conversion": 5.5,
    "prestige": 1.5,
    "overall": 6.85,
    "fhrsid": 503711,
    "name": "Arden Tandoori",
    "postcode": "B95 5AU",
    "category": "Indian Restaurant",
    "category_source": "google_types",
    "lat": 52.292736,
    "lon": -1.779571,
    "google_rating": 4.6,
    "google_reviews": 199,
    "fsa_rating": 5,
    "price_level": 2
  },
  "503931": {
    "experience": 9.18,
    "visibility": 8.08,
    "trust": 7.6,
    "conversion": 3.0,
    "prestige": 0.0,
    "overall": 6.72,
    "fhrsid": 503931,
    "name": "Bella Italia Also Trading As Super Nonna",
    "postcode": "CV37 6JG",
    "category": "Italian Restaurant",
    "category_source": "google_types",
    "lat": 52.192851,
    "lon": -1.707855,
    "google_rating": 4.3,
    "google_reviews": 1029,
    "fsa_rating": 5,
    "price_level": 2
  },
  "1411434": {
    "experience": 8.14,
    "visibility": 3.84,
    "trust": 7.79,
    "conversion": null,
    "prestige": 0.0,
    "overall": 6.07,
    "fhrsid": 1411434,
    "name": "Earlswood Lunch Club",
    "postcode": "B94 6BZ",
    "category": "Catering",
    "category_source": "name_match",
    "lat": null,
    "lon": null,
    "google_rating": 4.3,
    "google_reviews": 32,
    "fsa_rating": 5,
    "price_level": null
  },
  "1206079": {
    "experience": 9.65,
    "visibility": 6.5,
    "trust": 8.01,
    "conversion": null,
    "prestige": 1.5,
    "overall": 7.47,
    "fhrsid": 1206079,
    "name": "Building 523 Costa And Kitchen",
    "postcode": "CV35 0RR",
    "category": "Cafe / Coffee Shop",
    "category_source": "name_match",
    "lat": 52.1946487426758,
    "lon": -1.48444700241089,
    "google_rating": 4.7,
    "google_reviews": 600,
    "fsa_rating": 5,
    "price_level": null
  },
  "502838": {
    "experience": 8.72,
    "visibility": 8.09,
    "trust": 8.54,
    "conversion": null,
    "prestige": 0.0,
    "overall": 7.49,
    "fhrsid": 502838,
    "name": "Alveston Manor Hotel",
    "postcode": "CV37 7HP",
    "category": "Hotel / Accommodation",
    "category_source": "google_types",
    "lat": 52.190557,
    "lon": -1.696811,
    "google_rating": 3.9,
    "google_reviews": 1938,
    "fsa_rating": 5,
    "price_level": null
  },
  "502681": {
    "experience": 8.03,
    "visibility": 7.93,
    "trust": 7.87,
    "conversion": null,
    "prestige": 0.0,
    "overall": 7.01,
    "fhrsid": 502681,
    "name": "Billesley Manor Hotel",
    "postcode": "B49 6NF",
    "category": "Hotel / Accommodation",
    "category_source": "google_types",
    "lat": 52.209059,
    "lon": -1.787272,
    "google_rating": 4.2,
    "google_reviews": 1208,
    "fsa_rating": 5,
    "price_level": null
  },
  "1622078": {
    "experience": 8.49,
    "visibility": 6.73,
    "trust": 7.43,
    "conversion": 4.5,
    "prestige": 1.5,
    "overall": 6.58,
    "fhrsid": 1622078,
    "name": "Sushi Land",
    "postcode": "CV37 6NF",
    "category": "Japanese Restaurant",
    "category_source": "google_types",
    "lat": 52.1934882,
    "lon": -1.7091299,
    "google_rating": 4.6,
    "google_reviews": 141,
    "fsa_rating": 5,
    "price_level": null
  },
  "1622076": {
    "experience": 8.03,
    "visibility": 7.96,
    "trust": 7.44,
    "conversion": 5.5,
    "prestige": 0.0,
    "overall": 6.69,
    "fhrsid": 1622076,
    "name": "Caffe Nero",
    "postcode": "CV37 6AN",
    "category": "Cafe / Coffee Shop",
    "category_source": "google_types",
    "lat": null,
    "lon": null,
    "google_rating": 4.2,
    "google_reviews": 392,
    "fsa_rating": 5,
    "price_level": 2
  },
  "676557": {
    "experience": 8.84,
    "visibility": 8.09,
    "trust": 7.62,
    "conversion": 5.5,
    "prestige": 1.5,
    "overall": 7.15,
    "fhrsid": 676557,
    "name": "Plantarium",
    "postcode": "CV37 6NF",
    "category": "Vegan / Vegetarian",
    "category_source": "google_types",
    "lat": 52.193635,
    "lon": -1.708976,
    "google_rating": 4.9,
    "google_reviews": 575,
    "fsa_rating": 5,
    "price_level": 2
  },
  "503319": {
    "experience": 6.87,
    "visibility": 6.2,
    "trust": 6.1,
    "conversion": 6.0,
    "prestige": 0.0,
    "overall": 5.73,
    "fhrsid": 503319,
    "name": "Shipston Pizza And Kebab House",
    "postcode": "CV36 4AL",
    "category": "Fast Food / Quick Service",
    "category_source": "google_types",
    "lat": 52.062511,
    "lon": -1.623929,
    "google_rating": 4.1,
    "google_reviews": 110,
    "fsa_rating": 3,
    "price_level": null
  },
  "503369": {
    "experience": 9.42,
    "visibility": 8.05,
    "trust": 7.62,
    "conversion": null,
    "prestige": 1.5,
    "overall": 7.64,
    "fhrsid": 503369,
    "name": "Studley Castle",
    "postcode": "B80 7AJ",
    "category": "Hotel / Accommodation",
    "category_source": "google_types",
    "lat": 52.274766,
    "lon": -1.87233,
    "google_rating": 4.5,
    "google_reviews": 1698,
    "fsa_rating": 5,
    "price_level": null
  },
  "502970": {
    "experience": 5.93,
    "visibility": 6.94,
    "trust": 5.19,
    "conversion": 5.5,
    "prestige": 0.0,
    "overall": 5.29,
    "fhrsid": 502970,
    "name": "China Garden",
    "postcode": "CV37 6NL",
    "category": "Chinese Restaurant",
    "category_source": "google_types",
    "lat": 52.1944058,
    "lon": -1.7093728,
    "google_rating": 3.3,
    "google_reviews": 148,
    "fsa_rating": 2,
    "price_level": 2
  },
  "1584576": {
    "experience": 8.26,
    "visibility": 6.82,
    "trust": 7.6,
    "conversion": 4.5,
    "prestige": 0.0,
    "overall": 6.42,
    "fhrsid": 1584576,
    "name": "Libertine Burger",
    "postcode": "CV37 6JP",
    "category": "American / Grill",
    "category_source": "google_types",
    "lat": 52.1922623,
    "lon": -1.7085962,
    "google_rating": 4.4,
    "google_reviews": 184,
    "fsa_rating": 5,
    "price_level": null
  },
  "1317981": {
    "experience": 8.72,
    "visibility": 7.98,
    "trust": 8.75,
    "conversion": 4.5,
    "prestige": 1.5,
    "overall": 7.22,
    "fhrsid": 1317981,
    "name": "Kolshi Restaurant",
    "postcode": "CV35 9ND",
    "category": "Indian Restaurant",
    "category_source": "google_types",
    "lat": 52.197765,
    "lon": -1.594098,
    "google_rating": 4.8,
    "google_reviews": 763,
    "fsa_rating": 5,
    "price_level": null
  },
  "502816": {
    "experience": 8.61,
    "visibility": 8.44,
    "trust": 9.06,
    "conversion": 5.5,
    "prestige": 1.5,
    "overall": 7.51,
    "fhrsid": 502816,
    "name": "Loxleys Restaurant And Wine Bar",
    "postcode": "CV37 6EF",
    "category": "British Restaurant",
    "category_source": "google_types",
    "lat": 52.191343,
    "lon": -1.705451,
    "google_rating": 4.7,
    "google_reviews": 1669,
    "fsa_rating": 5,
    "price_level": 2
  },
  "503480": {
    "experience": 8.73,
    "visibility": 9.73,
    "trust": 7.2,
    "conversion": 5.5,
    "prestige": 1.5,
    "overall": 7.34,
    "fhrsid": 503480,
    "name": "Vintner Wine Bar",
    "postcode": "CV37 6EF",
    "category": "Pub / Bar",
    "category_source": "google_types",
    "lat": 52.191343,
    "lon": -1.705451,
    "google_rating": 4.6,
    "google_reviews": 887,
    "fsa_rating": 5,
    "price_level": 2
  },
  "503104": {
    "experience": 8.83,
    "visibility": 5.06,
    "trust": 8.13,
    "conversion": 6.0,
    "prestige": 0.0,
    "overall": 6.59,
    "fhrsid": 503104,
    "name": "Simla Takeaway",
    "postcode": "CV37 6LE",
    "category": "Indian Restaurant",
    "category_source": "google_types",
    "lat": 52.192994,
    "lon": -1.711204,
    "google_rating": 4.0,
    "google_reviews": 73,
    "fsa_rating": 5,
    "price_level": null
  }
}